Fuel Type Code,Station Name,Street Address,City,ZIP,EV Connector Types,EV Pricing,Latitude,Longitude,Access Code,State
ELEC,One Parking,555 12th St NW,Washington,20004,J1772,Free,38.896703,-77.027621,public,DC
ELEC,Maritime Plaza,1201 M St SE,Washington,20003,J1772,$0.20 per kWh,38.87593,-76.989468,private,DC
ELEC,Chevy Chase Pavilion,5355 Wisconsin Ave NW,Washington,20015,J1772,Free,38.960472,-77.084739,public,DC
ELEC,JBG - Fort Totten Square,300 Riggs Rd NE,Washington,20011,J1772,Free,38.958255,-77.002273,public,DC
ELEC,Washington Plaza Hotel - Tesla Destination,10 Thomas Cir NW,Washington,20005,J1772 TESLA,Free,38.906456,-77.031163,public,DC
ELEC,Morrison-Clark Historic Inn & Restaurant - Tesla Destination,1011 L St NW,Washington,20001,J1772 TESLA,Free,38.9043681,-77.0267268,public,DC
ELEC,"The Donovan, a Kimpton Hotel - Tesla Destination",1155 14th St NW,Washington,20005,J1772 TESLA,Free,38.904958,-77.031772,public,DC
ELEC,Park Hyatt Washington - Tesla Destination,1201 24th St NW,Washington,20037,J1772 TESLA,Free,38.9058204,-77.0512085,public,DC
ELEC,Kimpton Rouge Hotel - Tesla Destination,1315 16th St NW,Washington,20036,J1772 TESLA,Free,38.908258,-77.036037,public,DC
ELEC,"Mandarin Oriental, Washington DC - Tesla Destination",1330 Maryland Ave SW,Washington,20024,TESLA,Free,38.883828,-77.030247,public,DC
ELEC,Kimpton Mason & Rook Hotel - Tesla Destination,1430 Rhode Island Ave,Washington,20005,J1772 TESLA,Free,38.908429,-77.033132,public,DC
ELEC,The Kimpton George Hotel - Tesla Destination,15 E St NW,Washington,20001,J1772 TESLA,Free,38.896373,-77.010017,public,DC
ELEC,Courtyard Washington Embassy Row - Tesla Destination,1600 Rhode Island Ave NW,Washington,20036,TESLA,Free,38.906641,-77.036861,public,DC
ELEC,Kimpton Carlyle Hotel - Tesla Destination,1731 New Hampshire Ave NW,Washington,20009,J1772 TESLA,Free,38.913322,-77.039525,public,DC
ELEC,One Parking 2000 K - Tesla Destination,2000 K St NW,Washington,20006,TESLA,Free,38.9020444,-77.0453237,public,DC
ELEC,Embassy Row Hotel - Tesla Destination,2015 Massachusetts Ave NW,Washington,20036,J1772 TESLA,Free,38.910623,-77.045745,public,DC
ELEC,Atlantic Plumbing Building Parking - Tesla Destination,2112 8th St NW,Washington,20001,TESLA,Free,38.918283,-77.023174,public,DC
ELEC,State Plaza Hotel - Tesla Destination,2117 E St NW,Washington,20037,J1772 TESLA,Free,38.8962171,-77.047623,public,DC
ELEC,Kimpton Hotel Palomar Washington DC - Tesla Destination,2121 P St NW,Washington,20037,J1772 TESLA,Free,38.909852,-77.047399,public,DC
ELEC,Avenue Suites Georgetown - Tesla Destination,2500 Pennsylvania Ave NW,Washington,20037,TESLA,Free,38.9033344,-77.0536137,public,DC
ELEC,Kimpton Glover Park Hotel - Tesla Destination,2505 Wisconsin Ave NW,Washington,20007,J1772 TESLA,Free,38.92336,-77.072855,public,DC
ELEC,The Watergate Hotel - Tesla Destination,2650 Virginia Ave NW,Washington,20037,TESLA,Free,38.8993596,-77.0557605,public,DC
ELEC,Four Seasons Washington D.C. - Tesla Destination,2800 Pennsylvania Ave NW,Washington,20007,TESLA,Free,38.904437,-77.057389,public,DC
ELEC,Hyatt Regency Washington on Capitol Hill - Tesla Destination,400 New Jersey Ave NW,Washington,20001,J1772 TESLA,Free,38.895083,-77.011283,public,DC
ELEC,The Liaison Capitol Hill - Tesla Destination,415 New Jersey Ave NW,Washington,20001,TESLA,Free,38.8954701,-77.0109949,public,DC
ELEC,Hilton Garden Inn Washington DC Downtown - Tesla Destination,815 14th St NW,Washington,20005,TESLA,Free,38.9007011,-77.0316487,public,DC
ELEC,Embassy Suites by Hilton Convention Center - Tesla Destination,900 10th St NW,Washington,20001,J1772 TESLA,Free,38.901937,-77.026251,public,DC
ELEC,Hampton Inn Washington-Downtown-Convention Center - Tesla Destination,901 6th St NW,Washington,20001,TESLA,Free,38.901964,-77.019837,public,DC
ELEC,Marriott Marquis Washington D.C. - Tesla Destination,901 Massachusetts Ave NW,Washington,20001,J1772 TESLA,Free,38.903543,-77.024973,public,DC
ELEC,The St. Regis Washington D.C. - Tesla Destination,923 16th St NW,Washington,20006,TESLA,Free,38.9021295,-77.0361522,public,DC
ELEC,901 K Street NW - Tesla Destination,901 K St NW,Washington,20036,TESLA,Free,38.903059,-77.025601,public,DC
ELEC,1255 23rd St NW - Tesla Destination,1255 23rd St NW,Washington,20037,J1772 TESLA,Free,38.9062733,-77.0498542,public,DC
ELEC,The Hub - Tesla Destination,1615 L St NW,Washington,20036,J1772 TESLA,Free,38.904273,-77.037481,public,DC
ELEC,Foxhall East Inc.,"4200 Massachusetts Ave, NW",Washington,20016,J1772,$1.00-$2.00/Hr Variable Parking Fee,38.9348171,-77.0828442,public,DC
ELEC,Lenkin Co 2201,2201 Wisconsin Ave NW,Washington,20007,J1772,$1.00/Hr Parking Fee,38.9192265,-77.0706446,public,DC
ELEC,The Louis,1920 14th Street NW,Washington,20009,J1772,FREE,38.9163243,-77.0323174,public,DC
ELEC,Rhode Island Row,"2350 Washington Place, NE.",Washington,20018,J1772,FREE,38.9215664,-76.993693,public,DC
ELEC,531707 Lenkin Co 1625,1625 Massachusetts Avenue Northwest,Washington,20036,J1772,$1.00/Hr Parking Fee,38.9081864,-77.0380059,public,DC
ELEC,1250 Connecticut,"1250 Connecticut Avenue, NW",Washington,20036,J1772,$0.00-$10.00/Hr Variable Parking Fee,38.9068836,-77.0423311,public,DC
ELEC,531713  The Jefferson Building,1225 19th Street Northwest,Washington,20036,J1772,$0.15/kWh Energy Fee,38.9066664,-77.0430436,public,DC
ELEC,Hines - 1200 Nineteenth Street NW,1200 19th Street NW Suite 260,Washington,20036,J1772,$1.00/Hr Parking Fee,38.9060995,-77.0438477,public,DC
ELEC,Holiday Inn Washington DC-Central/White House,1501 Rhode Island Avenue NW,Washington,20005,J1772,$2.00/Hr Parking Fee,38.9079994,-77.0347353,public,DC
ELEC,1200 17th Street NW,"1200 17th Street, NW",Washington,20036,J1772,FREE,38.9057498,-77.0387055,public,DC
ELEC,1920 L Street,1920 L Street NW,Washington,20036,J1772,$1.50/Hr Parking Fee,38.903492,-77.044477,public,DC
ELEC,1900 L Street,1900 L Street NW,Washington,20036,J1772,$1.50/Hr Parking Fee,38.903492,-77.043903,public,DC
ELEC,1020 19th Street,1020 19th Street NW,Washington,20036,J1772,$1.50/Hr Parking Fee,38.903147,-77.043825,public,DC
ELEC,Eleven Hundred Connecticut Avenue,1100 Connecticut Avenue Northwest,Washington,20036,J1772,$1.00/Hr Parking Fee,38.9039725,-77.0405507,public,DC
ELEC,"531706  1667 K Street, NW",1667 K Street Northwest,Washington,20006,J1772,$0.00-$10.00/Hr Variable Parking Fee,38.9030183,-77.0381339,public,DC
ELEC,"531705  1331 F Street, NW",1331 F Street Northwest,Washington,20004,J1772,$0.00-$10.00/Hr Variable Parking Fee,38.897643,-77.0309368,public,DC
ELEC,"10 G Street, NE","10 G St, NE",Washington,20002,J1772,$0.00-$5.00/Hr Variable Parking Fee,38.8998373,-77.0071072,public,DC
ELEC,"APA 750 First St, NE","750 First St, NE",Washington,20002,J1772,$0.00-$5.00/Hr Variable Parking Fee,38.8998373,-77.0071072,public,DC
ELEC,Lexington/Market Sq Parking Garage,401 9th St NW & D St NW,Washington,20004,J1772,$1.00-$5.00/Hr Variable Parking Fee,38.89475995,-77.02395767,public,DC
ELEC,122 C Street,122 C Street NW,Washington,20001,J1772,$1.50/Hr Parking Fee,38.893317,-77.013021,public,DC
ELEC,Central Parking - 101 Constitution,101 Constitution Avenue Northwest,Washington,20001,J1772,FREE,38.8926815,-77.0131214,public,DC
ELEC,375 - Patriots Plaza,375 E Street Southwest,Washington,20024,J1772,FREE,38.8840361,-77.0169844,public,DC
ELEC,355 - Patriots Plaza,355 E Street Southwest,Washington,20024,J1772,FREE,38.8837304,-77.0165323,public,DC
ELEC,Hyatt Washington DC North Mall,400 E Street Southwest,Washington,20024,J1772,FREE,38.8829816,-77.0180331,public,DC
ELEC,SQUARE 54,2200 Pennsylvania Ave NW,Washington,20037,J1772,"$1.00-$5.00/Hr Variable Parking Fee, $0.22/kWh Energy Fee",38.9017929,-77.0493245,public,DC
ELEC,"Lenkin 1133A, Lenkin 1133B",1133 Connecticut Avenue Northwest,Washington,20036,J1772,$1.00/Hr Parking Fee,38.9049056,-77.0401315,public,DC
ELEC,"Lenkin 1050A, Lenkin 1050B",1050 K Street Northwest,Washington,20001,J1772,$1.00/Hr Parking Fee,38.9021405,-77.0267154,public,DC
ELEC,Rosewood Washington D.C. - Tesla Destination,1050 31st Street NW,Washington,20007,TESLA,Free,38.903912,-77.061216,public,DC
ELEC,"Capella Washington, D.C. - Tesla Destination",1050 31st St NW,Washington,20007,J1772 TESLA,Free,38.904031,-77.061463,public,DC
ELEC,1501 New York Ave NE - Tesla Destination,1501 New York Ave NE,Washington,20002,J1772 TESLA,Free,38.915614,-76.983038,public,DC
ELEC,Columbia Center - Tesla Destination,1152 15th St NW,Washington,20005,TESLA,Free,38.90493,-77.035048,public,DC
ELEC,1875 K Street - Tesla Destination,1875 K St NW,Washington,20036,TESLA,Free,38.902991,-77.043045,public,DC
ELEC,1700 New York Avenue - Tesla Destination,1700 New York Ave,Washington,20006,J1772 TESLA,Free,38.896069,-77.040275,public,DC
ELEC,531714 - 799 9th Street,"799 9th Street NW, Suite 102",Washington,20001,J1772,$0.00-$10.00/Hr Variable Parking Fee,38.899515,-77.023468,public,DC
ELEC,Lincoln Square - 555 11th Street NW,555 11th Street Northwest,Washington,20004,J1772,FREE,38.8967861,-77.0264518,public,DC
ELEC,Parcel O at the Yards,1346 4th St SE,Washington,20003,J1772,Free,38.873894,-77.000066,public,DC
ELEC,Whole Foods - DC,965 Florida Ave NW,Washington,20001,J1772,Free,38.919526,-77.024665,public,DC
ELEC,JBG - The Foundry,1055 Thomas Jefferson St NW,Washington,20007,J1772,Free,38.903686,-77.059528,public,DC
ELEC,20 M St. Parking,20 M St. SE,Washington,20003,J1772,Free,38.876829,-77.007855,public,DC
ELEC,500 LEnfant Plaza,500 L'Enfant Plaza SW,Washington,20024,J1772,Free,38.883395,-77.0234,public,DC
ELEC,JBG 2101 L Street - B1,2101 L Street,Washington,20037,J1772,Free,38.90394,-77.04772,public,DC
ELEC,City Center Hines,870 9th Street Northwest,Washington,20001,J1772,$0.00-$5.00/Hr Variable Parking Fee,38.9005843,-77.0244732,public,DC
ELEC,"The Residences at the Ritz-Carlton, Washington D.C. - Tesla Destination",1111 23rd St,Washington,20037,TESLA,Free,38.904875,-77.050069,public,DC
ELEC,"The Ritz-Carlton, Georgetown - Tesla Destination",3100 South Street NW,Washington,20007,TESLA,Free,38.903413,-77.061943,public,DC
ELEC,FMS2,2796 Mitcher Rd SW,Anacostia Naval Station,20373,J1772,Free,38.858158,-77.011997,private,DC
ELEC,FAA - Headquarters Office Building (HDQ 10A),800 Independence Ave SW,Washington,20591,J1772,Free,38.88691383,-77.02269937,private,DC
ELEC,GSA FLEET / WESTCTYARD,501-555 19th St NW,Washington,20036,J1772,Free,38.896008,-77.043471,private,DC
ELEC,OPM Motor Pool,1900 E St NW,Washington,20415,J1772,Free,38.8948,-77.0369,private,DC
ELEC,US MINT,801 9th St NW,Washington,20001,J1772,$0.12 per kWh,38.900627,-77.023611,private,DC
ELEC,BEP #2,201-301 14th St SW,Washington,20024,J1772,$0.30 per kWh,38.885703,-77.032041,private,DC
ELEC,395 - Patriots Plaza,395 E Street Southwest,Washington,20024,J1772,FREE,38.8835524,-77.0171795,public,DC
ELEC,4801 Connecticut Apartments,4801 Connecticut Avenue Northwest,Washington,20008,J1772,"$0.00-$4.00/Hr Variable Parking Fee, $0.25/kWh Energy Fee",38.9342066,-77.0577025,public,DC
ELEC,Heyday Properties,1501 M St NW,Washington,20005,J1772,Free,38.906076,-77.034846,public,DC
ELEC,Days Inn Connecticut Ave,4400 Connecticut Ave NW,Washington,20008,J1772,FREE,38.94693,-77.065639,public,DC
ELEC,Conrad Washington DC,950 New York Avenue Northwest,Washington,20001,J1772,$0.25/kWh Energy Fee,38.901306,-77.0255817,public,DC
ELEC,SP Plus - 1101 Vermont Ave,1101 Vermont Ave NW,Washington,20005,J1772,Free,38.903956,-77.032354,public,DC
ELEC,1701 Rhode Island Inc.,1701 Rhode Island Avenue Northwest,Washington,20036,J1772,FREE,38.9067117,-77.0387573,public,DC
ELEC,The Savoy Apartments,2101 L Street,Washington,20037,J1772,Free,38.90394,-77.04772,public,DC
ELEC,500 E Street SW,500 E Street Southwest,Washington,20024,J1772,"$1.50/Hr Parking Fee , $0.25/kWh Energy Fee",38.8829566,-77.0190848,public,DC
ELEC,Washington Square - Central Parking,1050 Connecticut Ave NW,Washington,20036,J1772,Free,38.903332,-77.04045,public,DC
ELEC,1331,1331 Maryland Avenue Southwest,Washington,20024,J1772,FREE,38.8840965,-77.0310022,public,DC
ELEC,District Wharf Parking Garage - Public Access on P1,1000 Maine,Washington,20024,J1772,FREE,38.8807429,-77.0266704,public,DC
ELEC,2000 M St,2000 M Street,Washington,20036,J1772,$1.50/Hr Parking Fee,38.905461,-77.045209,public,DC
ELEC,Washington Office Center,409 3rd Street Southwest,Washington,20024,J1772,$1.00/Hr Parking Fee,38.884762,-77.0155718,public,DC
ELEC,"1015 15th Street, Inc.",1015 15th Street NW,Washington,20005,J1772,FREE,38.9033169,-77.0339576,public,DC
ELEC,1400 K St NW,1400 K Street Northwest,Washington,20005,J1772,$0.00-$10.00/Hr Variable Parking Fee,38.9021614,-77.0322943,public,DC
ELEC,1400 Eye Street,1400 I Street NW,Washington,20005,J1772,$1.50/Hr Parking Fee,38.901006,-77.032358,public,DC
ELEC,Sentinel Square III,45 L Street Northeast,Washington,20002,J1772,FREE,38.9036883,-77.0074877,public,DC
ELEC,531708  Lexington/Market Sq Parking Garage,401 9th St NW & 875 D St NW,Washington,20004,J1772,$1.00-$5.00/Hr Variable Parking Fee,38.895425,-77.023752,public,DC
ELEC,600 Mass Ave,600 Massachusetts Avenue Northwest,Washington,20001,J1772,FREE,38.9012307,-77.0207401,public,DC
ELEC,531711  JBAB / MWR,Chappie James Boulevard,Washington,20032,J1772,$0.00-$1.50/Hr Variable Parking Fee,38.8401346,-77.0171786,public,DC
ELEC,Akridge,"601 Thirteenth Street NW, Suite 300",Washington,20005,J1772,FREE,38.897813,-77.029352,public,DC
ELEC,Rockview Apartments,1400 Rock Creek Ford Road Northwest,Washington,20011,J1772,"$0.00-$4.00/Hr Variable Parking Fee, $0.25/kWh Energy Fee",38.9632417,-77.0334229,public,DC
ELEC,District Wharf Parking Garage,800 Maine Avenue Southwest,Washington,20024,J1772,FREE,38.8781511,-77.0223675,public,DC
ELEC,Target Ivy City,1515 New York Avenue Northeast,Washington,20002,J1772,FREE,38.916308,-76.982415,public,DC
ELEC,1200 K,1200 K St. NW Suite 100,Washington,20005,J1772,FREE,38.9021125,-77.0286047,public,DC
ELEC,AZ/JH REIT (DC) LP c/o Transwestern,"1100 New York Avenue, NW Suite Ground Floor",Washington,20005,J1772,FREE,38.9002423,-77.0274863,public,DC
ELEC,Beckerts Park Apartments,1350 E Street Southeast,Washington,20003,J1772,FREE,38.8831947,-76.9864307,public,DC
ELEC,Hall of the States Office Building,400/444 North Capitol Street NW,Washington,20001,J1772,$1.00/Hr Parking Fee,38.8957704,-77.0094944,public,DC
ELEC,Resources and Conservation Center,1400 16th Street Northwest,Washington,20036,J1772,$1.00/Hr Parking Fee,38.9090483,-77.0371063,public,DC
ELEC,1801 Pennsylvania Avenue Northwest,1801 Pennsylvania Avenue Northwest,Washington,20006,J1772,FREE,38.9004219,-77.0418833,public,DC
ELEC,600 New Hampshire Ave,600 New Hampshire Avenue Northwest,Washington,20037,J1772,$1.50/Hr Parking Fee,38.8978425,-77.0551966,public,DC
ELEC,Capitol Crossing,200 Massachusetts Ave NW,Washington,20001,J1772,Free,38.898971,-77.014127,public,DC
ELEC,Metropolitan Square Garage,655 15th Street NW,Washington,20005,J1772,$1.00-$5.00/Hr Variable Parking Fee,38.898011,-77.0336201,public,DC
ELEC,Union Place,200 K Street NE,Washington,20002,J1772,FREE,38.9031507,-77.0032763,public,DC
ELEC,Garages,"7323 R 12th ST., NW",Washington,20012,J1772,FREE,38.9790239,-77.0276195,public,DC
ELEC,655 New York Ave NW,655 New York Avenue Northwest,Washington,20001,J1772,$0.00-$10.00/Hr Variable Parking Fee,38.9054465,-77.0205502,public,DC
ELEC,1275 New Jersey Ave,1275 New Jersey Avenue Southeast,Washington,20003,J1772,$0.00-$10.00/Hr Variable Parking Fee,38.8752301,-77.0039287,public,DC
ELEC,901 F,901 F St. NW,Washington,20004,J1772,$0.00-$0.50/kWh Variable Energy Fee,38.8976072,-77.0240107,public,DC
ELEC,1771 N Street,1771 N Street NW,Washington,20036,J1772,FREE,38.9075534,-77.0413078,public,DC
ELEC,Garage 2A,"Riley St  SW, Washington DC, 20024",Washington,20024,J1772,FREE,38.8779129,-77.0219095,public,DC
ELEC,The Wharf Public Garage 3,600 Water Street Southwest,Washington,20024,J1772,FREE,38.8753566,-77.0210991,public,DC
ELEC,1000 South Capitol,1000 S Capitol St SE,Washington,20003,J1772,FREE,38.8783202,-77.0087047,public,DC
ELEC,Tribeca,40N St. NE,Washington,20002,J1772,FREE,38.890927,-76.980764,public,DC
ELEC,The Apollo,600 H St NE,Washington,20002,J1772,Free,38.900253,-76.998243,public,DC
ELEC,670 Maine Private Parking Nest,"670 Maine Ave SW, Washington DC 20024",Washington,20024,J1772,FREE,38.8777768,-77.0225306,public,DC
ELEC,Capitol Riverfront,861 New Jersey Ave SE,Washington,20003,J1772,Free,38.880326,-77.00574017,public,DC
ELEC,600 Water Private Parking Nest,600 Water Street Southwest,Washington,20024,J1772,FREE,38.8753566,-77.0210991,public,DC
ELEC,531710  650 Massachusetts Ave NW,650 Massachusetts Ave NW,Washington,20001,J1772,$0.00-$10.00/Hr Variable Parking Fee,38.899413,-77.024307,public,DC
ELEC,600 Thirteenth,600 13th Street N.W.,Washington,20005,J1772,$0.25/kWh Energy Fee,38.8976502,-77.0299233,public,DC
ELEC,Garage 2B,"Parker Row SW, Washington, DC 20024",Washington,20024,J1772,FREE,38.8773729,-77.0213205,public,DC
ELEC,2 M Street,"2 M Street, NE",Washington,20002,J1772,FREE,38.905762,-77.0086436,public,DC
ELEC,Franklin D. Reeves Building,2000 14th St NW,Washington,20009,J1772,$1 per hr 7am-10pm; $0.50 per hr 10pm-7am,38.917564,-77.032504,public,DC
ELEC,700 Penn,700 Pennsylvania Avenue Southeast,Washington,20003,J1772,FREE,38.8850381,-76.9957982,public,DC
ELEC,1220 19th St,1220 19th Street Northwest,Washington,20036,J1772,$1.50/Hr Parking Fee,38.906607,-77.0439431,public,DC
ELEC,Sheikh Zayed Campus (SZ),111 Michigan Avenue,Washington,20010,J1772,FREE,38.9271737,-77.014524,public,DC
ELEC,NYA90,901 New York Ave. NW,Washington,20001,J1772,"$1.00-$5.00/Hr Variable Parking Fee, $0.03/kWh Energy Fee",38.9019902,-77.0252236,public,DC
ELEC,Knollwood Life Plan Community,"6200 Oregon Avenue, NW",Washington,20015,J1772,"$4.00/Hr Parking Fee , $0.25-$0.50/kWh Variable Energy Fee",38.9709327,-77.0552771,public,DC
ELEC,Hilton Garden Inn,2201 M St NW,Washington,20037,J1772,Free,38.9056279,-77.04896502,public,DC
ELEC,1055 High Condominium,1055 Wisconsin Avenue Northwest,Washington,20007,J1772,FREE,38.9041479,-77.0627761,public,DC
ELEC,1875 Pennsylvania Ave NW,1875 Pennsylvania Avenue Northwest,Washington,20006,J1772,FREE,38.9005059,-77.0425038,public,DC
ELEC,Canal Park,1015 2nd Pl SE,Washington,20003,J1772,Free,38.8779161,-77.0027427,public,DC
ELEC,1201-1225 New York Avenue SPE,"1201 New York Avenue, NW",Washington,20005,J1772,Free,38.901252,-77.028574,public,DC
ELEC,The Hay-Adams - Tesla Destination,800 16th St NW,Washington,20006,TESLA,Free,38.9005107,-77.0369492,public,DC
ELEC,1200 First St NE,1200 First St NE,Washington,20002,J1772 NEMA515,Free with parking,38.90608235,-77.00629931,public,DC
ELEC,Upton Place Parking Garage - Tesla Destination,4000 Wisconsin Ave NW,Washington,20016,J1772 TESLA,$0.33 per kWh,38.94168438,-77.07678809,public,DC
ELEC,One Franklin Square Parking Garage,1010 13th St NW,Washington,19119,J1772,Free,38.90294784,-77.03004941,public,DC
ELEC,Sursum Corda - Parking Lot,1112 First Ter NW,Washington,20036,J1772,$1 session fee; $0.35 per kWh; $3 per hour idle fee,38.90429,-77.012001,public,DC
ELEC,Municipal Garage,200 N Holliday St,Baltimore,21202,J1772 NEMA520,Free,39.291785,-76.610539,public,MD
ELEC,Bel Air Nissan,1506 Bel Air Rd,Bel Air,21014,CHADEMO J1772 J1772COMBO,Free,39.5059,-76.38238,public,MD
ELEC,Community College of Baltimore County (CCBC),800 S Rolling Rd,Catonsville,21228,J1772,Free,39.256947,-76.730918,public,MD
ELEC,Younger Nissan,7418 Grove Rd,Frederick,21704,CHADEMO J1772 J1772COMBO,Free,39.39116,-77.40777,public,MD
ELEC,Criswell Nissan,19574 Amaranth Dr,Germantown,20874,J1772,Free,39.177414,-77.249773,public,MD
ELEC,Passport Nissan - Marlow Heights,5000 Auth Way,Suitland,20746,CHADEMO J1772 J1772COMBO,Free,38.827,-76.92355,public,MD
ELEC,Darcars Nissan,15911 Indianola Dr,Rockville,20855,CHADEMO J1772,Free,39.11377,-77.16099,public,MD
ELEC,Herb Gordon Nissan,3131 Automobile Blvd,Silver Spring,20904,CHADEMO J1772,Free,39.077447,-76.947933,public,MD
ELEC,Annapolis Friends Meeting,351 Dubois Ave,Annapolis,21401,J1772 NEMA520,Free,39.001676,-76.525253,public,MD
ELEC,Antwerpen Nissan,1701 Woodlawn Dr,Baltimore,21207,J1772,Free,39.312935,-76.734569,public,MD
ELEC,Antwerpen Nissan,1701 Woodlawn Dr,Baltimore,21207,J1772,Free,39.312935,-76.734569,private,MD
ELEC,Bob Bell Nissan,7900 Eastern Ave,Baltimore,21224,J1772,Free,39.296284,-76.509019,public,MD
ELEC,Bob Bell Nissan,7900 Eastern Ave,Baltimore,21224,J1772,Free,39.296284,-76.509019,private,MD
ELEC,Nissan of Bowie,2200 Crain Hwy,Bowie,20716,CHADEMO J1772,Free,38.919138,-76.718428,public,MD
ELEC,Nissan of Bowie,2200 Crain Hwy,Bowie,20716,J1772,Free,38.919138,-76.718428,private,MD
ELEC,Antwerpen Nissan,12451 Auto Dr,Clarksville,21029,CHADEMO J1772,Free,39.21308,-76.94426,public,MD
ELEC,Antwerpen Nissan,12451 Auto Dr,Clarksville,21029,J1772,Free,39.21308,-76.94426,private,MD
ELEC,Darcars Nissan - College Park,9330 Baltimore Ave,College Park,20740,J1772,Free,39.008053,-76.929772,public,MD
ELEC,Darcars Nissan - College Park,9330 Baltimore Ave,College Park,20740,J1772,Free,39.008053,-76.929772,private,MD
ELEC,Nissan Ellicott City,8569 Baltimore National Pike,Ellicott City,21043,CHADEMO J1772 J1772COMBO,Free,39.28255,-76.80843,public,MD
ELEC,Sheehy Nissan,7232 Ritchie Hwy,Glen Burnie,21061,CHADEMO J1772,Free,39.1731,-76.61949,public,MD
ELEC,Hamilton Nissan,1929 Dual Hwy,Hagerstown,21740,CHADEMO J1772 J1772COMBO,Free,39.605636,-77.687979,public,MD
ELEC,Hamilton Nissan,1929 Dual Hwy,Hagerstown,21740,J1772,Free,39.605636,-77.687979,private,MD
ELEC,Ourisman Nissan,3510 Ft Meade Rd,Laurel,20724,J1772,Free,39.10165651,-76.82296929,public,MD
ELEC,Ourisman Nissan,3510 Ft Meade Rd,Laurel,20724,J1772,Free,39.10165651,-76.82296929,private,MD
ELEC,Antwerpen Nissan,11405 Reisterstown Rd,Owings Mills,21117,J1772,Free,39.43853,-76.80284,public,MD
ELEC,Antwerpen Nissan,11405 Reisterstown Rd,Owings Mills,21117,J1772,Free,39.43853,-76.80284,private,MD
ELEC,Pohanka Nissan - Salisbury,2012 N Salisbury Blvd,Salisbury,21801,J1772,Free,38.39214,-75.57586,private,MD
ELEC,Nationwide Nissan,2085 York Rd,Timonium,21093,CHADEMO J1772 J1772COMBO,Free,39.4404,-76.62571,public,MD
ELEC,Nationwide Nissan,2085 York Rd,Timonium,21093,J1772,Free,39.4404,-76.62571,private,MD
ELEC,Sheehy Nissan - Waldorf,2950 Crain Hwy,Waldorf,20601,CHADEMO J1772,Free,38.630057,-76.9056,public,MD
ELEC,Bel Air Nissan,1506 Bel Air Rd,Bel Air,21014,J1772,Free,39.5059,-76.38238,private,MD
ELEC,Criswell Nissan,19574 Amaranth Dr,Germantown,20874,J1772,Free,39.177414,-77.249773,private,MD
ELEC,Herb Gordon Nissan,3131 Automobile Blvd,Silver Spring,20904,J1772,Free,39.077447,-76.947933,private,MD
ELEC,Passport Nissan - Marlow Heights,5000 Auth Way,Suitland,20746,J1772,Free,38.827,-76.92355,private,MD
ELEC,Old Farm Court,115 Old Farm Ct,Glen Burnie,21060,NEMA520,Free,39.160868,-76.599205,public,MD
ELEC,Baltimore Washington Medical Center,300 Hospital Dr,Glen Burnie,21061,NEMA520,Free,39.138576,-76.62159,public,MD
ELEC,Waldorf Ford,2440 Crain Hwy,Waldorf,20601,J1772,Free,38.64352,-76.891367,public,MD
ELEC,Academy Ford,13401 Baltimore Ave,Laurel,20707,J1772,Free,39.07394,-76.869633,private,MD
ELEC,Century Ford,302 Century Dr,Mt. Airy,21771,J1772,Free,39.368505,-77.143072,public,MD
ELEC,Safford Ford Lincoln of Salisbury,1902 N Salisbury Blvd,Salisbury,21801,J1772,Free,38.389455,-75.580663,public,MD
ELEC,Hagerstown Ford,1714 Massey Blvd,Hagerstown,21740,J1772,Free,39.628969,-77.76681,public,MD
ELEC,Pohanka Nissan - Salisbury,2012 N Salisbury Blvd,Salisbury,21801,CHADEMO J1772 J1772COMBO,Free,38.39214,-75.57586,public,MD
ELEC,Maryland Institute College of Art - Commons Hall,130 McMechen St,Baltimore,21217,J1772,Free,39.308846,-76.625419,public,MD
ELEC,Maryland Institute College of Art - Lazarus Center,131 W North Ave,Baltimore,21201,J1772,Free,39.31074,-76.618931,public,MD
ELEC,University of Baltimore - Maryland Avenue Garage,1104 Maryland Ave,Baltimore,21201,J1772,Free,39.302352,-76.617606,public,MD
ELEC,Mayflower Properties,1110 Morton St,Baltimore,21201,J1772,Free,39.30246,-76.616698,public,MD
ELEC,Parkview Business Center,201 Prospect Ave,Hagerstown,21742,J1772,Free,39.653116,-77.715766,public,MD
ELEC,Mount Airy Municipal Parking Lot,255-299 Cross St,Mt. Airy,21771,CHADEMO J1772 J1772COMBO TESLA,Variable fee,39.375442,-77.154666,public,MD
ELEC,First United Evangelical and Reformed Church,6115 O'Donnell St,Baltimore,21224,J1772,Free,39.281321,-76.542569,public,MD
ELEC,Marriott Garage,101 S Paca St,Baltimore,21201,J1772,Free,39.287168,-76.621895,public,MD
ELEC,Redwood Garage,11 S Eutaw St,Baltimore,21201,J1772,Free,39.288504,-76.620394,public,MD
ELEC,Annex Garage,140 W Patrick St,Frederick,21701,J1772,Free,39.414063,-77.413739,public,MD
ELEC,Fleet & Eden Garage,501 S Eden St,Baltimore,21231,J1772,Free,39.285366,-76.598315,public,MD
ELEC,Signet Garage,210 Guilford Ave,Baltimore,21202,J1772,Free,39.29195,-76.611345,public,MD
ELEC,Cathedral Garage,320 Cathedral St,Baltimore,21201,J1772,Free,39.293793,-76.616977,public,MD
ELEC,Arena Garage,201 W Baltimore St,Baltimore,21201,J1772,Free,39.289385,-76.618742,public,MD
ELEC,Ivy Car Barn,311 E Chase St,Baltimore,21202,J1772,Free,39.302532,-76.610935,private,MD
ELEC,Department of General Services - Parking Lot,3800 E Biddle St,Baltimore,21213,J1772,Free,39.305588,-76.566117,private,MD
ELEC,Water Street Garage,22 S Gray St,Baltimore,21201,J1772,Free,39.288514,-76.611444,public,MD
ELEC,Safety First,38 N Main St,Keedysville,21756,J1772,Free,39.48881,-77.696524,private,MD
ELEC,Back River Treatment Plant,8201 Eastern Ave,Baltimore,21224,J1772,Free,39.300234,-76.492813,public,MD
ELEC,Carrollton Inn,50 Albermarle St,Baltimore,21202,J1772,Free,39.288678,-76.604209,public,MD
ELEC,War Memorial Plaza,400 E Lexington St,Baltimore,21202,J1772,Free,39.291177,-76.60939,public,MD
ELEC,Fox and Bunting Building,1303 W Mount Royal Ave,Baltimore,21217,J1772,Free,39.308041,-76.621291,public,MD
ELEC,Gramercy Mansion,1400 Greenspring Valley Rd,Stevenson,21153,J1772,Free,39.42522,-76.694873,public,MD
ELEC,Hotel Indigo,24 W Franklin St,Baltimore,21201,J1772,Free,39.295255,-76.61648,public,MD
ELEC,Montebello Filtration Plant,3901 Hillen Rd,Baltimore,21218,J1772,Free,39.336584,-76.588301,public,MD
ELEC,Town of Ocean City - 300 St. Louis Ave Street Parking,300 St. Louis Ave,Ocean City,21842,J1772,Free,38.335516,-75.087156,public,MD
ELEC,Town of Ocean City - Municipal Parking,10007 Coastal Hwy,Ocean City,21842,J1772,Free,38.414273,-75.058153,public,MD
ELEC,Town of Ocean City - Recreation and Parks,200 125th St,Ocean City,21842,J1772,Free,38.430853,-75.059004,public,MD
ELEC,Conservatory and Botanic Gardens,3100 Swann Dr,Baltimore,21217,CHADEMO J1772COMBO,Free,39.318709,-76.647197,public,MD
ELEC,Patterson Park,200 S Linwood Ave,Baltimore,21224,CHADEMO J1772COMBO,Free,39.288621,-76.576047,public,MD
ELEC,Maryland Center for Veterans Education and Training,301 N High St,Baltimore,21202,J1772,Free,39.293619,-76.606356,public,MD
ELEC,Baltimore Public Works Museum,751 Eastern Ave,Baltimore,21202,J1772,Free,39.284815,-76.603415,public,MD
ELEC,City of Baltimore - Department of Public Works,2331 N Fulton Ave,Baltimore,21217,J1772,Free,39.315293,-76.643737,private,MD
ELEC,City of Baltimore - Parks Maintenance and Forestry Complex,3100 Shop Rd,Baltimore,21211,J1772,Free,39.3223338,-76.6410022,private,MD
ELEC,City of Baltimore - Ashburton Pumping Station,3099 Liberty Heights Ave,Baltimore,21216,J1772,Free,39.322918,-76.66763,private,MD
ELEC,City of Takoma Park - Community Center,7500 Maple Ave,Takoma Park,20912,CHADEMO J1772 J1772COMBO,Free,38.981991,-77.010571,public,MD
ELEC,City of Takoma Park - Junction Parking Lot,7309 Carroll Ave,Takoma Park,20912,J1772,Free,38.978277,-77.005876,public,MD
ELEC,City of Takoma Park - Recreation Center,7315 New Hampshire Ave,Takoma Park,20912,J1772,Free,38.982318,-76.987962,public,MD
ELEC,M&T Bank Stadium,1101 Russell St,Baltimore,21230,CHADEMO J1772 J1772COMBO,Parking fee,39.279829,-76.622383,public,MD
ELEC,Whalen Commons - East Parking Lot,19721 Beall St,Poolesville,20837,J1772,Free,39.145806,-77.412039,public,MD
ELEC,Poolesville Hardware,19961 Fisher Ave,Poolesville,20837,J1772,Free,39.146667,-77.417222,public,MD
ELEC,Tom Hodges Auto Sales & Service,24177 Tom Hodges Dr,Hollywood,20636,J1772,Free,38.331636,-76.555135,public,MD
ELEC,Hamilton Library,5910 Harford Rd,Baltimore,21214,CHADEMO J1772 J1772COMBO,Free,39.356533,-76.558482,public,MD
ELEC,Orleans Street Library,1303 Orleans St,Baltimore,21231,CHADEMO J1772COMBO,Free,39.29447,-76.599243,public,MD
ELEC,Reisterstown Road Library,6310 Reisterstown Rd,Baltimore,21215,CHADEMO J1772 J1772COMBO,Free,39.354424,-76.700634,public,MD
ELEC,Light Street Library,1251 Light St,Baltimore,21230,CHADEMO J1772COMBO,Free,39.275068,-76.611912,public,MD
ELEC,Roland Park Library,5108 Roland Ave,Baltimore,21210,CHADEMO J1772COMBO,Free,39.355737,-76.635104,public,MD
ELEC,Clifton Park Golf Course,2701 St Lo Dr,Baltimore,21213,J1772,Free,39.32159779,-76.58783514,public,MD
ELEC,Carroll Park Golf Course,2100 Washington Blvd,Baltimore,21230,J1772,Free,39.27267,-76.648655,public,MD
ELEC,Cylburn Arboretum,4975 Greenspring Ave,Baltimore,21209,J1772,Free,39.352944,-76.659878,public,MD
ELEC,Camden Yards,333 W Camden St,Baltimore,21201,J1772,Free,39.284664,-76.619604,public,MD
ELEC,Mount Pleasant Ice Arena,6101 Hillen Rd,Baltimore,21239,J1772,Free,39.368847,-76.577788,public,MD
ELEC,Wyndham Garden North BW Parkway,5811 Annapolis Rd,Cheverly,20784,J1772,Free,38.937323,-76.917061,public,MD
ELEC,Herring Run Library Branch,3801 Erdman Ave,Baltimore,21213,CHADEMO J1772COMBO,Free,39.315122,-76.569243,public,MD
ELEC,Canton Waterfront Park,3001 Boston St,Baltimore,21224,CHADEMO J1772 J1772COMBO,Free,39.277178,-76.572417,public,MD
ELEC,Gwynns Falls Park,4999 Windsor Mill Rd,Baltimore,21207,CHADEMO J1772COMBO,Free,39.309277,-76.70115,public,MD
ELEC,City of Baltimore - Garage,101 W Dickman St,Baltimore,21230,CHADEMO J1772COMBO,Free,39.262573,-76.616256,public,MD
ELEC,Catoctin Mountain Park - Visitor Center,14707 Park Central Rd,Thurmont,21788,J1772,Free,39.63378,-77.449906,public,MD
ELEC,Catoctin Mountain Park - Round Meadow,14850 Manahan Rd,Sabillasville,21780,J1772,Free,39.644424,-77.486954,public,MD
ELEC,Catoctin Mountain Park - Headquarters,6602 Foxville Rd,Thurmont,21788,J1772,Free,39.626633,-77.439577,public,MD
ELEC,Baltimore Police Department - Western District,1034 N Mount St,Baltimore,21217,J1772,Free,39.300619,-76.644695,public,MD
ELEC,Middle Branch Park,3301 Waterview Ave,Baltimore,21230,J1772,Free,39.254879,-76.622308,public,MD
ELEC,Mount Pleasant Golf Course,6001 Hillen Rd,Baltimore,21239,J1772,Free,39.363692,-76.577699,public,MD
ELEC,Electric Vehicle Institute,1120 N Charles St,Baltimore,21201,J1772,Free,39.303044,-76.616255,public,MD
ELEC,Fayette St Garage,1001 E Fayette St,Baltimore,21201,J1772,Free,39.291285,-76.603515,public,MD
ELEC,Municipal Garage,200 N Holliday St,Baltimore,21202,J1772,Free,39.291785,-76.610539,private,MD
ELEC,Roosevelt Center - Municipal Building,25 Crescent Rd,Greenbelt,20770,CHADEMO J1772COMBO,Free,39.000738,-76.877355,public,MD
ELEC,West Street Garage,40 E West St,Baltimore,21230,J1772,Free,39.276065,-76.613202,public,MD
ELEC,C.C. Jackson Recreation Center,4910 Park Heights Ave,Baltimore,21215,J1772,Free,39.347048,-76.673296,public,MD
ELEC,Park Plaza,2099 Gaither Rd,Rockville,20850,J1772,Payment through SemaConnect,39.117417,-77.180898,private,MD
ELEC,Baltimore Street Garage,15 Guilford Ave,Baltimore,21202,J1772,Free,39.290084,-76.610788,public,MD
ELEC,Museum of Industry,1415 Key Hwy,Baltimore,21230,J1772,Free,39.273755,-76.601727,public,MD
ELEC,Clifton Mansion,2701 Saint Lo Dr,Baltimore,21213,J1772,Free,39.319173,-76.587403,public,MD
ELEC,Chesapeake House Travel Plaza,10670 I-95,Port Deposit,21904,CHADEMO J1772 J1772COMBO,Free Level 2 charging; DCFC 2.50 per session and $0.20 per minute,39.612124,-76.009519,public,MD
ELEC,Carroll Avenue Street Parking,7000 Carroll Ave,Takoma Park,20912,CHADEMO J1772COMBO,Free,38.974757,-77.012702,public,MD
ELEC,Latrobe Park,1627 E Fort Ave,Baltimore,21230,J1772,Free,39.268278,-76.591693,public,MD
ELEC,Downtown Takoma Park,7224 Carroll Ave,Takoma Park,20912,CHADEMO J1772 J1772COMBO,Free,38.978147,-77.006623,public,MD
ELEC,Arena Garage - South Howard Street,99 S Howard St,Baltimore,21201,J1772,Free,39.287914,-76.619205,public,MD
ELEC,Caroline Street Garage,805 S Caroline St,Baltimore,21231,J1772,Free,39.282302,-76.596315,public,MD
ELEC,City of Hyattsville - Municipal Building,4310 Gallatin St,Hyattsville,20781,J1772,Free,38.952849,-76.942214,private,MD
ELEC,Baltimore Police Marine Unit,3201 Boston St,Baltimore,21224,J1772,Free,39.276811,-76.570849,public,MD
ELEC,Tidewater Marina,321 E Cromwell St,Baltimore,21230,J1772,Free,39.264924,-76.60639,public,MD
ELEC,City of Hyattsville - Parking Lot #3,4320 Farragut St,Hyattsville,20781,J1772,Free,38.951908,-76.941858,public,MD
ELEC,City of Hyattsville - Parking Lot #2,4310 Hamilton St,Hyattsville,20781,J1772,Free,38.953701,-76.941801,public,MD
ELEC,Charles Plaza Garage,211 N Liberty Rd,Baltimore,21201,J1772,Free,39.291834,-76.616799,public,MD
ELEC,Atrium Garage,308 W Fayette St,Baltimore,21201,J1772,Free,39.2906,-76.620429,public,MD
ELEC,Southway Builders,1318 E Fort Ave,Baltimore,21230,J1772,Free,39.269901,-76.595658,public,MD
ELEC,Town of Ocean City - Worcester Parking Lot,601 S Philadelphia Ave,Ocean City,21842,J1772,Free,38.328131,-75.088996,public,MD
ELEC,Villages at Homeland,357 Homeland Southway,Baltimore,21212,J1772,Free,39.352912,-76.6146,public,MD
ELEC,Millie's Road House Bar,200 Old Ocean Gateway,Vienna,21869,J1772,Free,38.485086,-75.823956,public,MD
ELEC,Villages at Homeland,313 Homeland Southway,Baltimore,21212,J1772,Free,39.353249,-76.614846,public,MD
ELEC,Studio 3807,3807 Rhode Island Ave,Brentwood,20722,J1772,Free,38.938966,-76.955265,public,MD
ELEC,Columbia Gateway - Medical Center,7070 Samuel Morse Dr,Columbia,21046,J1772,Free,39.169397,-76.811526,public,MD
ELEC,Cheverly Town Park,6401 Forest Rd,Cheverly,20785,J1772,Free,38.925025,-76.906358,public,MD
ELEC,Laureate Education Inc,7065 Samuel Morse Dr,Columbia,21046,J1772,Free,39.168759,-76.811733,public,MD
ELEC,Mercy Medical Center - Bunting Garage,301 Saint Paul Pl,Baltimore,21202,J1772,Free,39.29255,-76.61355,public,MD
ELEC,Penn Station Garage,1500 N Charles St,Baltimore,21201,J1772,Free,39.306655,-76.616222,public,MD
ELEC,Old Town - Fire Station,1110 Hillen St,Baltimore,21202,J1772,Free,39.297285,-76.605258,public,MD
ELEC,Rankin Upholstery,8021 Cessna Ave,Gaithersburg,20879,J1772,Free,39.172762,-77.164172,public,MD
ELEC,City of Hyattsville - Department of Public Works,4633 Arundel Pl,Hyattsville,20781,J1772,Free,38.946661,-76.939889,public,MD
ELEC,Maryland House Travel Plaza,"I-95, Mile Marker 82",Aberdeen,21001,CHADEMO J1772 J1772COMBO,Free,39.498059,-76.231826,public,MD
ELEC,Lexington Market,400 W Lexington St,Baltimore,21201,J1772,Free,39.291633,-76.622509,public,MD
ELEC,Landover Hills - Police Station and Town Hall,6904 Taylor St,Landover Hills,20784,J1772,Free,38.941542,-76.894218,public,MD
ELEC,Rotunda Parking Garage,711 W 40th St,Baltimore,21211,J1772,Free,39.33563,-76.629666,public,MD
ELEC,Vienna Food Mart,307 Old Ocean Gateway,Vienna,21869,CHADEMO J1772COMBO,Free,38.486172,-75.825191,public,MD
ELEC,Little Italy Garage,400 S Central Ave,Baltimore,21202,J1772,Free,39.285911,-76.599462,public,MD
ELEC,Dorchester County Public Library - Hurlock Branch,222 S Main St,Hurlock,21643,J1772,Free,38.631284,-75.862667,public,MD
ELEC,Hurlock Park - Tennis Courts,200 Charles St,Hurlock,21643,J1772,Free,38.632842,-75.864863,public,MD
ELEC,Berwyn Heights Town Hall,5700 Berwyn Rd,Berwyn Heights,20740,J1772,Free,38.992364,-76.917261,public,MD
ELEC,Hagerstown - Central Parking Lot,14 N Potomac St,Hagerstown,21740,J1772COMBO,$2.50 per session; $0.20 per minute,39.642218,-77.719215,public,MD
ELEC,Inn at Horn Point - Tesla Destination,534  Burnside Street,Annapolis,21403,TESLA,Free,38.972453,-76.4780693,public,MD
ELEC,Doubletree by Hilton Annapolis - Tesla Destination,210 Holiday Ct,Annapolis,21401,TESLA,Free,38.982522,-76.547334,public,MD
ELEC,Hyatt Regency Baltimore - Tesla Destination,300 Light St,Baltimore,21202,J1772 TESLA,Free,39.28462,-76.613671,public,MD
ELEC,Sheraton Inner Harbor Hotel - Tesla Destination,300 South Charles St,Baltimore,21201,J1772 TESLA,Free,39.284602,-76.61595,public,MD
ELEC,Cazbar - Tesla Destination,316 N Charles St,Baltimore,21201,TESLA,Free,39.293019,-76.615604,public,MD
ELEC,Doubletree Inn at The Colonnade - Tesla Destination,4 W University Pkwy,Baltimore,21218,J1772 TESLA,Free,39.334176,-76.619561,public,MD
ELEC,DoubleTree by Hilton Hotel Bethesda - Tesla Destination,8120 Wisconsin,Bethesda,20814,J1772 TESLA,Free,38.991229,-77.095893,public,MD
ELEC,Downtown Cambridge Black Water Baked Goods & Coffee - Tesla Destination,429 Race St,Cambridge,21613,J1772 TESLA,Free,38.568961,-76.077521,public,MD
ELEC,Great Oak Manor - Tesla Destination,10568 Cliff Rd,Chestertown,21620,TESLA,Free,39.2687177,-76.2025573,public,MD
ELEC,Brampton Bed & Breakfast Inn - Tesla Destination,25227 Chestertown Rd,Chestertown,21620,J1772 TESLA,Free,39.211757,-76.094796,public,MD
ELEC,Hampton Inn & Suites Columbia/South MD - Tesla Destination,7045 Minstrel Wy,Columbia,21046,J1772 TESLA,Free,39.17575,-76.846303,public,MD
ELEC,SpringHill Suites by Marriott Columbia - Tesla Destination,7055 Minstrel Wy,Columbia,21046,J1772 TESLA,Free,39.176119,-76.847247,public,MD
ELEC,Ruddy Duck Brewery & Grill - Tesla Destination,13200 Dowell Rd,Dowell,20629,TESLA,Free,38.350362,-76.457198,public,MD
ELEC,Rocky Gap Casino Resort - Tesla Destination,16701 Lakeview Rd NE,Flintstone,21530,J1772 TESLA,Free,39.699997,-78.656806,public,MD
ELEC,"Savage River Lodge, a Select Registry Property - Tesla Destination",1600 Mt Aetna Rd,Frostburg,21532,J1772 TESLA,Free,39.65525,-79.021482,public,MD
ELEC,The Cornucopia Cafe - Tesla Destination,146 Casselman Rd,Grantsville,21536,J1772 TESLA,Free,39.697031,-79.1416,public,MD
ELEC,The Narrows Restaurant - Tesla Destination,3023 Kent Narrow Wy S,Grasonville,21638,TESLA,Free,38.968861,-76.244728,public,MD
ELEC,Hilton Garden Inn Kent Island - Tesla Destination,3206 Main St,Grasonville,21638,J1772 TESLA,Free,38.966327,-76.240875,public,MD
ELEC,Holiday Inn Express Baltimore-BWI Airport West - Tesla Destination,7481 Ridge Rd,Hanover,21076,J1772 TESLA,Free,39.160052,-76.711847,public,MD
ELEC,"Antietam Overlook Farm, a Select Registry Property - Tesla Destination",4812 Porterstown Rd,Keedysville,21756,J1772 TESLA,Free,39.445664,-77.705295,public,MD
ELEC,Black Bear Tavern and Restaurant - Tesla Destination,102 Fort Dr,McHenry,21541,TESLA,Free,39.549596,-79.35123,public,MD
ELEC,"Lake Pointe Inn, a Select Registry Property - Tesla Destination",174 Lake Pointe Dr,McHenry,21541,J1772 TESLA,Free,39.556658,-79.357445,public,MD
ELEC,Wilcom's Inn - Tesla Destination,11234 Fingerboard Rd,Monrovia,21770,J1772 TESLA,Free,39.346653,-77.270838,public,MD
ELEC,Black Ankle Vineyards - Tesla Destination,14463 Black Ankle Rd,Mount Airy,21771,TESLA,Free,39.46165,-77.162396,public,MD
ELEC,Port House Grill - Tesla Destination,15 N Main St,North East,21901,TESLA,Free,39.60151,-75.943346,public,MD
ELEC,Haley Farm Inn and Retreat Center - Tesla Destination,16766 Garrett Hwy,Oakland,21550,J1772 TESLA,Free,39.470945,-79.358778,public,MD
ELEC,Ocean City Convention Center - Tesla Destination,4001 Coastal Hwy,Ocean City,21842,J1772 TESLA,Free,38.366495,-75.071961,public,MD
ELEC,Atlantic House Bed and Breakfast - Tesla Destination,501 N Baltimore Ave,Ocean City,21842,TESLA,Free,38.336537,-75.083956,public,MD
ELEC,Holiday Inn Oceanfront - Tesla Destination,6600 Coastal Hwy,Ocean City,21842,J1772 TESLA,Free,38.389613,-75.064479,public,MD
ELEC,Princess Royale Hotel - Tesla Destination,9100 Coastal Hwy,Ocean City,21842,TESLA,Free,38.407642,-75.058072,public,MD
ELEC,Hilton Suites Ocean City Oceanfront - Tesla Destination,3200 N Baltimore Ave,Ocean City,21842,TESLA,Free,38.360378,-75.072756,public,MD
ELEC,Sandaway Waterfront Lodging - Tesla Destination,103 W Strand Rd,Oxford,21654,J1772 TESLA,Free,38.692118,-76.175449,public,MD
ELEC,The Inn at Antietam - Tesla Destination,220 E Main St,Sharpsburg,21782,J1772 TESLA,Free,39.45953,-77.74285,public,MD
ELEC,Chanceford Hall Bed & Breakfast - Tesla Destination,209 W Federal St,Snow Hill,21863,J1772 TESLA,Free,38.172739,-75.396266,public,MD
ELEC,George Brooks House B & B - Tesla Destination,24500 Rolles Range Rd,St Michaels,21663,J1772 TESLA,Free,38.7970133,-76.2277961,public,MD
ELEC,Old Brick Inn - Tesla Destination,401 S Talbot St,St. Michaels,21663,J1772 TESLA,Free,38.7838128,-76.2234717,public,MD
ELEC,St. Michaels Winery - Tesla Destination,609 S. Talbot St,St. Michaels,21663,TESLA,Free,38.781182,-76.221799,public,MD
ELEC,Antrim 1844 Country House Hotel - Tesla Destination,30 Trevanion Rd,Taneytown,21787,J1772 TESLA,Free,39.654916,-77.1730675,public,MD
ELEC,Best Western Westminster - Tesla Destination,451 WMC Dr,Westminster,21158,J1772 TESLA,Free,39.58717,-77.010051,public,MD
ELEC,225 North Calvert Street Garage,225 N Calvert St,Baltimore,21202,J1772,Free,39.292049,-76.61231,public,MD
ELEC,Horseshoe Casino,1525 Russell St,Baltimore,21230,J1772,Free,39.273771,-76.627853,public,MD
ELEC,YMCA - Orokawa,600 W Chesapeake Ave,Towson,21204,J1772,Free,39.400162,-76.6144,public,MD
ELEC,Centers for Medicare and Medicaid Services,7500 Security Blvd,Windsor Mill,21244,J1772,Free,39.314516,-76.760004,public,MD
ELEC,Lexington Street Garage,510 E Lexington St,Baltimore,21202,J1772,Free,39.291504,-76.608454,public,MD
ELEC,YMCA - Dancel,4331 Montgomery Rd,Ellicott City,21043,J1772,Free,39.251907,-76.814808,public,MD
ELEC,Emmitsburg Town Office,300 S Seton Ave,Emmitsburg,21727,J1772,Free,39.701108,-77.328497,public,MD
ELEC,Smithsonian Libraries - Research Annex,3400 Pennsy Dr,Landover,20785,J1772,Free,38.938404,-76.880421,public,MD
ELEC,Hampton Inn Cumberland - Tesla Destination,109 Welton Dr,Cumberland,21502,TESLA,Free,39.6588203,-78.747755,public,MD
ELEC,Zeke's Coffee,4719 Harford Rd,Baltimore,21214,J1772,Free,39.343968,-76.567828,public,MD
ELEC,Central Plaza Garage,100 W Fayette St,Baltimore,21201,J1772,Free,39.290481,-76.616381,public,MD
ELEC,Maryland Science Center,601 Light St,Baltimore,21230,J1772,Free,39.28223,-76.612824,public,MD
ELEC,Johns Hopkins Community Physicians - Remington,2700 Remington Ave,Baltimore,21211,J1772,Free,39.320474,-76.621062,public,MD
ELEC,McHenry Row - Parking Garage,1641 Whetstone Way,Baltimore,21230,J1772,Free,39.268351,-76.599249,public,MD
ELEC,Shimadzu Scientific Instruments,7102 Riverwood Dr,Columbia,21046,J1772,Free,39.17626,-76.874243,private,MD
ELEC,Veterans of Foreign Wars,2630 Rosser Rd,Federalsburg,21632,J1772,Free,38.679196,-75.777369,public,MD
ELEC,Town of Galestown - Town Hall,5538 Old School House Rd,Galestown,21659,J1772,Free,38.565561,-75.71589,public,MD
ELEC,Whole Foods Market,6621-B Baltimore Ave,Riverdale,20737,J1772,Free,38.969371,-76.937183,public,MD
ELEC,Inner Harbor Center Garage,400 E Pratt St,Baltimore,21202,J1772,Free,39.286835,-76.609322,public,MD
ELEC,Howard Community College,5051 Campus Dr,Columbia,21044,J1772,Free,39.212347,-76.880501,private,MD
ELEC,College Square Shopping Center,444 WMC Drive,Westminster,21158,J1772,FREE,39.5867228,-77.0133356,public,MD
ELEC,Winchester Hall,12 East Church Street,Frederick,21701,J1772,FREE,39.4149343,-77.4097442,public,MD
ELEC,PHH,940 Ridgebrook Rd,Sparks,21152,J1772,FREE,39.525064,-76.649015,public,MD
ELEC,Firaxis Games,10 Loveton Cir,Sparks Glencoe,21152,J1772,$0.00-$0.20/kWh Variable Energy Fee,39.5212999,-76.646339,public,MD
ELEC,"Walgreens - Eldersberg, MD #7678",1260 Liberty Rd,Eldersberg,21784,J1772,$2.00/Hr Parking Fee,39.4047804,-76.951296,public,MD
ELEC,Metro Garage 1,5048 Painters Mill Road,Owings Mills,21117,J1772,$0.00-$2.00/Hr Variable Parking Fee,39.4058654,-76.7787821,public,MD
ELEC,"Walgreens - Bel Air, MD #11999",1927 Emmorton Rd,Bel Air,21015,J1772,$2.00/Hr Parking Fee,39.5019452,-76.3265292,public,MD
ELEC,The Yards at Fieldside Village,816 Long Dr,Aberdeen,21001,J1772,FREE,39.5328597,-76.1895162,public,MD
ELEC,"Walgreens - Baltimore, MD #6779",9616 Hartford Road,Baltimore,21234,J1772,$2.00/Hr Parking Fee,39.396155,-76.523482,public,MD
ELEC,St. John Properties,2560 Lord Baltimore Drive,Baltimore,21244,J1772,$1.00/Hr Parking Fee,39.325403,-76.751758,public,MD
ELEC,The Gate at Aberdeen Proving Ground,"6180 Guardian Gateway, Suite 102",Aberdeen Proving Ground,21005,J1772,$0.50-$0.75/Hr Variable Parking Fee,39.48913133,-76.1621383,public,MD
ELEC,"Walgreens - Edgewood, MD #9342",1930 Pulaski Highway,Edgewood,21040,J1772,$2.00/Hr Parking Fee,39.4354502,-76.3141145,public,MD
ELEC,Parks and People Foundation,2100 Liberty Heights Ave.,Baltimore,21217,J1772,FREE,39.319529,-76.651367,public,MD
ELEC,MedStar Union Memorial Hospital,201 E. University Pkwy,Baltimore,21218,J1772,FREE,39.329267,-76.614289,public,MD
ELEC,Johns Hopkins University,3101 Wyman Park Dr,Baltimore,21211,J1772,FREE,39.3259113,-76.6215812,public,MD
ELEC,The Fitzgerald Parking Garage,1201 West Mt. Royal Ave.,Baltimore,21217,J1772,FREE,39.307469,-76.619217,public,MD
ELEC,Win Kelly Dealership,12421 Auto Drive,Clarksville,21029,J1772,FREE,39.2112679,-76.941624,public,MD
ELEC,TEN.M,10100 Twin Rivers Rd,Columbia,21044,J1772,$0.00-$5.00/Hr Variable Parking Fee,39.2165937,-76.8684038,public,MD
ELEC,2 Hopkins Apartments,2 Hopkins Plaza,Baltimore,21201,J1772,$2.00/Hr Parking Fee,39.288894,-76.6172399,public,MD
ELEC,The Metropolitan Downtown Columbia,Town Center Avenue,Columbia,21044,J1772,FREE,39.214536,-76.8673634,public,MD
ELEC,36 S. Charles St,36 S Charles Street,Baltimore,21201,J1772,FREE,39.2879203,-76.6155026,public,MD
ELEC,LAZ Parking,17 E Conway St,Baltimore,21202,J1772,$1.00-$5.00/Hr Variable Parking Fee,39.2838341,-76.6139854,public,MD
ELEC,President Street Parking Garage,815 E. Pratt Street,Baltimore,21202,J1772,FREE,39.286911,-76.6033829,public,MD
ELEC,McHenry Row,1603 Whetstone Way,Baltimore,21230,J1772,$0.10/kWh Energy Fee,39.2690144,-76.5997877,public,MD
ELEC,McHenry Row - East Garage,1631 Whetstone Way,Baltimore,21230,J1772,$0.10/kWh Energy Fee,39.26856357,-76.59919685,public,MD
ELEC,Research Boulevard (Charging Stations),1803 Research Blvd,Rockville,20850,J1772,FREE,39.0984845,-77.1796859,public,MD
ELEC,Rockville Town Center,44 Maryland Ave.,Rockville,20850,J1772,FREE,39.0842791,-77.15094091,public,MD
ELEC,Maple Lawn - 8115,8115 Maple Lawn Blvd.,Fulton,20759,J1772,$0.50-$0.95/Hr Variable Parking Fee,39.1520206,-76.9026864,public,MD
ELEC,Maple Lawn 4,8160 Maple Lawn Boulevard,Fulton,20759,J1772,$0.50-$0.75/Hr Variable Parking Fee,39.1492926,-76.9053992,public,MD
ELEC,"7900 Washington Blvd., Jessup, MD 20794",7900 Washington Blvd.,Jessup,20794,J1772,FREE,39.1720712,-76.7867934,public,MD
ELEC,"Walgreens - Brooklyn Park, MD #6007",5740 Ritchie Highway,Brooklyn Park,21225,J1772,$2.00/Hr Parking Fee,39.216143,-76.615116,public,MD
ELEC,Fleet Lot,7201 Corporate Center Dr,Hanover,21076,J1772,FREE,39.1890522,-76.6983085,public,MD
ELEC,BWI Airport - Daily Rooftop,7062 Elm Road,Baltimore,21240,J1772,FREE,39.18806,-76.67759,public,MD
ELEC,BWI Airport - Daily Ground Floor,7062 Elm Road,Baltimore,21240,J1772,FREE,39.1869346,-76.6776287,public,MD
ELEC,BWI Airport - Hourly Ground Floor,7062 Elm Road,Baltimore,21240,J1772,FREE,39.180144,-76.670086,public,MD
ELEC,Randolph Plaza,57 Randolph RD,Silver Spring,20904,J1772,FREE,39.076167,-77.004377,public,MD
ELEC,Potomac Place Shopping Center,10122 River Road,Potomac,20854,J1772,FREE,39.016489,-77.209277,public,MD
ELEC,11200 Rockville Pike LLC,11200 Rockville Pike,Rockville,20852,J1772,FREE,39.0408693,-77.1104619,public,MD
ELEC,The Elms At Shannon\'s Glen,7811 Shannon's Glen DR,Jessup,20794,J1772,"$0.00-$5.00/Hr Variable Parking Fee, $0.20/kWh Energy Fee",39.140761,-76.760309,public,MD
ELEC,Lionsgate at Woodmont Corner Condo,7710 Woodmont Ave,Bethesda,20814,J1772,FREE,38.9868489,-77.0965435,public,MD
ELEC,7201 Wisconsin Ave,7201 Wisconsin Ave,Bethesda,20814,J1772,"$0.00-$2.00/Hr Variable Parking Fee, $0.13/kWh Energy Fee",38.98187158,-77.09250798,public,MD
ELEC,"8737 Colesville Rd, LLC",8737 Colesville Road,Silver Spring,20910,J1772,FREE,38.998714,-77.0257707,public,MD
ELEC,The Citron Apartments - Foulger-Pratt,815 Pershing Drive,Silver Spring,20910,J1772,FREE,38.9981068,-77.0239052,public,MD
ELEC,Blair House,8201 16th St.,Silver Spring,20910,J1772,$1.00-$2.00/Hr Variable Parking Fee,38.991846,-77.034751,public,MD
ELEC,The Blairs Shopping Center,1280 East-West Hwy,Silver Spring,20910,J1772,$1.00-$2.00/Hr Variable Parking Fee,38.99207106,-77.03287763,public,MD
ELEC,Geico West Lot,4608 Willard Avenue,Bethesda,20815,J1772,$1.00/Hr Parking Fee,38.9611248,-77.0903933,public,MD
ELEC,531704 - The Shops at Wisconsin Place,4412 Willard Avenue,Chevy Chase,20815,J1772,$1.50-$5.00/Hr Variable Parking Fee,38.9611607,-77.0873737,public,MD
ELEC,Chesapeake Building,3115 Chesapeake Building,College Park,20742,J1772,FREE,38.998001,-76.941887,public,MD
ELEC,Severn Building,5245 Greenbelt Road,College Park,20740,J1772,FREE,38.9980404,-76.9199156,public,MD
ELEC,College Park Downtown Parking Garage,7308 Yale Avenue,College Park,20740,J1772,FREE,38.9804536,-76.9367647,public,MD
ELEC,WashColl-Lot-B,300 Washington Avenue,Chestertown,21620,J1772,FREE,39.2180241,-76.0692262,public,MD
ELEC,WashColl-Lot-D,300 Washington Avenue,Chestertown,21620,J1772,FREE,39.2180241,-76.0692262,public,MD
ELEC,"Annex \""B\"" Classrooms",101 College Parkway,Arnold,21012,J1772,$1.00/Hr Parking Fee,39.0490132,-76.5167488,public,MD
ELEC,PGC 1301 McCormick,1301 McCormick Drive,Upper Marlboro,20774,J1772,$0.00-$1.00/Hr Variable Parking Fee,38.9091841,-76.8420572,public,MD
ELEC,Springhill Suites Annapolis,189 Admiral Cochrane Drive,Annapolis,21401,J1772,FREE,38.9726981,-76.5492764,public,MD
ELEC,Chesapeake HPAC,1000 College Circle,Wye Mills,21679,J1772,FREE,38.95135409,-76.08221413,public,MD
ELEC,Hilton Garden Inn Waldorf,10385 O'Donnell Pl.,Waldorf,20603,J1772,FREE,38.619302,-76.93311,public,MD
ELEC,Belmond the Inn at Perry Cabin,308 Watkins Lane,Saint Michaels,21663,J1772,FREE,38.790252,-76.2214708,public,MD
ELEC,"Walgreens - La Plata, MD #10063",6300 Crane Highway,La Plata,20646,J1772,$2.00/Hr Parking Fee,38.538959,-76.983092,public,MD
ELEC,W. College Ave. Lot H,222 West College Avenue,Salisbury,21801,J1772,FREE,38.3485762,-75.601699,public,MD
ELEC,Perdue East,1101 Camden Ave.,Salisbury,21801,J1772,FREE,38.3444766,-75.6058571,public,MD
ELEC,East of Market Apartments,100 Holling Dr,Frederick,21701,J1772,FREE,39.4309239,-77.4024166,public,MD
ELEC,Frederick County Government,331 Montevue Lane,Frederick,21702,J1772,FREE,39.4327557,-77.4393568,public,MD
ELEC,Hancock Western Rail Trail Parking Lot,2 Canal St,Hancock,21750,CHADEMO J1772COMBO,Free,39.698418,-78.178408,public,MD
ELEC,Charles Plaza Garage - Tesla Destination,222 North Charles St,Baltimore,21201,TESLA,Free,39.291987,-76.615821,public,MD
ELEC,Chester Plaza - Tesla Destination,7 Chester Plaza,Chester,21619,TESLA,Free,38.976475,-76.288568,public,MD
ELEC,G&M Restaurant - Tesla Destination,804 N Hammonds Ferry Rd,Linthicum,21090,TESLA,Free,39.225034,-76.665832,public,MD
ELEC,26300,133 National Business Parkway,Annapolis Junction,20701,J1772,$0.20/kWh Energy Fee,39.1243889,-76.774318,public,MD
ELEC,Parsons Corp,7110 Samuel Morse Dr,Columbia,21046,J1772,Free,39.168437,-76.812615,public,MD
ELEC,UMBC - Walker Avenue Garage,1000 Hilltop Cr,Baltimore,21250,J1772,Free,39.257426,-76.712476,public,MD
ELEC,UMBC - Lot 9,1000 Hilltop Cr,Baltimore,21250,J1772,Free,39.25459,-76.715174,public,MD
ELEC,Comfort Inn Shady Grove,16216 Frederick Road,Gaithersburg,20877,J1772,$0.49/kWh Energy Fee,39.1214784,-77.1772467,public,MD
ELEC,Spinnaker Garage,707 President St,Baltimore,21202,J1772,FREE,39.2828701,-76.6010004,public,MD
ELEC,Howard Square Apartments - Colonial Parking,7500 Hearthside Way,Elkridge,21075,J1772,Free,39.173343,-76.78312,public,MD
ELEC,Howard Square Apartments - Verde West,7604 Hearthside Way,Elkridge,21075,J1772,Free,39.174324,-76.780879,public,MD
ELEC,Howard Square Apartments - Verde East,7710 Hearthside Way,Elkridge,21075,J1772,Free,39.175034,-76.779284,public,MD
ELEC,Oak Barrel Caf,35206 National Pike NE,Little Orleans,21766,CHADEMO J1772 J1772COMBO,Free,39.70410071,-78.3286182,public,MD
ELEC,MOM's Organic Market - Rockville,10 Upper Rock Circle,Rockville,20850,J1772,FREE,39.1134145,-77.1845173,public,MD
ELEC,Main,4961 Tesla Drive,Bowie,20715,J1772,FREE,38.956517,-76.70764,public,MD
ELEC,Rawlings Conservatory and Botanic Gardens,3100 Swann Dr,Baltimore,21217,J1772,Free,39.318525,-76.644954,public,MD
ELEC,M&T Bank Stadium - Parking Lot C,1101 Russell St,Baltimore,21230,J1772,Parking fee,39.279097,-76.621094,public,MD
ELEC,City of Hyattsville,4310 Gallatin St,Hyattsville,20781,CHADEMO J1772COMBO,"$2 initiation fee, 20 cents per minute.",38.952683,-76.941805,public,MD
ELEC,Town of Ocean City - Convention Center,4001 Coastal Hwy,Ocean City,21842,CHADEMO J1772COMBO,Free; pay to park,38.365827,-75.072092,public,MD
ELEC,"Hyatt Regency Chesapeake Bay Golf Resort, Spa And Marina",100 Heron Blvd,Cambridge,21613,J1772,free,38.561263,-76.046307,public,MD
ELEC,Frederick Health Hospital,400 W 7th St,Frederick,21701,J1772,Free,39.423189,-77.415839,public,MD
ELEC,Department of Environment,1801 McCormick Drive,Upper Marlboro,20774,J1772,$0.00-$1.00/Hr Variable Parking Fee,38.9148413,-76.8451134,public,MD
ELEC,HQ Bowie,4961 Tesla Dr,Bowie,20715,J1772,$0.00-$0.50/Hr Variable Parking Fee,38.9570814,-76.7077064,public,MD
ELEC,Bethesda Row,4950 Elm Street,Bethesda,20814,J1772,Free,38.981849,-77.097914,public,MD
ELEC,Linganore Winecellars - Tesla Destination,13601 Glissans Mill Rd,Mt Airy,21771,TESLA,Free,39.422768,-77.193238,public,MD
ELEC,6116 Executive Blvd,6116 Executive Boulevard,Rockville,20852,J1772,FREE,39.0480505,-77.1260282,public,MD
ELEC,Watkins Park,615 Center St,Mt. Airy,21771,TESLA,free,39.375592,-77.145778,public,MD
ELEC,PGC 9400 Peppercorn,9400 Peppercorn Place,Upper Marlboro,20774,J1772,$1.00/Hr Parking Fee,38.913537,-76.8434696,public,MD
ELEC,Sport Chevrolet,3101 Automobile Blvd,Silver Spring,20904,J1772,Free,39.081139,-76.947254,public,MD
ELEC,Elkridge Fire Station #1,5700 Rowanberry Drive,Elkridge,21075,J1772,FREE,39.2105483,-76.7372062,public,MD
ELEC,Common Market Co-op 7th Street,927 West 7th Street,Frederick,21701,J1772,FREE,39.4274836,-77.4152472,public,MD
ELEC,Frederick,5273 Buckeystown Pike,Frederick,21703,J1772,FREE,39.3759198,-77.412834,public,MD
ELEC,Windridge Vineyard,15700 Darnestown Rd,Darnestown,20874,J1772,$0.20/kWh Energy Fee,39.12312,-77.32573,public,MD
ELEC,Greenmount Bowl - Tesla Destination,1625 N Main St,Hampstead,21074,TESLA,Free,39.62023,-76.856198,public,MD
ELEC,John Hopkins University - Tesla Destination,3101 Wyman Park Dr,Baltimore,21218,J1772 TESLA,Free,39.3258398,-76.6217496,public,MD
ELEC,Kitty Knight - Tesla Destination,14028 Augustine Herman Hwy,Georgetown,21930,TESLA,Free,39.36095,-75.880319,public,MD
ELEC,Town of Centreville - Tesla Destination,101 Lawyers Row,Centreville,21617,J1772 TESLA,Free,39.044755,-76.0656196,public,MD
ELEC,Two Wisconsin Circle - Tesla Destination,2 Wisconsin Cir,Chevy Chase,20815,TESLA,Free,38.96197,-77.085332,public,MD
ELEC,Washington College - Tesla Destination,300 Washington Avenue,Chestertown,21620,J1772 TESLA,Free,39.2170867,-76.0688146,public,MD
ELEC,Westfield Annapolis - Nordstroms Parking - Tesla Destination,2002 Annapolis Mall Rd,Annapolis,21401,J1772 TESLA,Free,38.991254,-76.542499,public,MD
ELEC,"BP - Clear Spring, MD",12911 Clear Spring Rd,Clear Spring,21722,CHADEMO J1772COMBO,$0.50 per kWh,39.653757,-77.927112,public,MD
ELEC,Best Western Hotel and Conference Center,5625 O'Donnell St,Baltimore,21224,CHADEMO J1772COMBO,Free,39.2803474,-76.54722773,public,MD
ELEC,Robert Morris Inn,314 N Morris St,Oxford,21654,J1772,Free,38.692832,-76.173983,public,MD
ELEC,Causeway Park,110 Oxford Rd,Oxford,21654,J1772,Free,38.68406,-76.169776,public,MD
ELEC,Town of Easton - Brewers Lane Parking,109 Brewers Ln,Easton,21601,J1772 TESLA,Free,38.777042,-76.074308,public,MD
ELEC,GERMANTOWN MAIN OFFICE,12774 Wisteria Dr,Germantown,20874,J1772,Free,39.174758,-77.267555,private,MD
ELEC,Census,4600 Silver Hill Rd,Suitland,20746,J1772,Free,38.84591,-76.928745,private,MD
ELEC,FDA White Oak Campus,East Loop Rd,Silver Spring,20993,J1772,$0.13 per kWh,39.036766,-76.979409,private,MD
ELEC,Joint Base Andrews,3320 Pennsylvania Ave,Andrews AFB,20762,J1772,Free,38.7965,-76.8836,private,MD
ELEC,Ashland Garage,900 N Washington Street,Baltimore,21205,J1772,Free,39.30118,-76.59019,public,MD
ELEC,PGC 1400 McCormick,1400 McCormick Drive,Upper Marlboro,20774,J1772,$0.00-$1.00/Hr Variable Parking Fee,38.9085172,-76.8459243,public,MD
ELEC,Falls Grove Office Center,14955 Shady Grove Rd,Rockville,20850,J1772,Free,39.101127,-77.191261,public,MD
ELEC,"Walgreens - Forest Hill, MD #9926",2016 Rock Spring Rd,Forest Hill,21050,J1772,$2.00/Hr Parking Fee,39.5731928,-76.3851175,public,MD
ELEC,Greenleigh FF - 6201,6201 Greenleigh Avenue,Middle River,21220,J1772,FREE,39.3606919,-76.4019353,public,MD
ELEC,White Oak Medical Center Campus - Outside Parking,11890 Healing Way,White Oak,20904,J1772,Free,39.0495709,-76.9572484,public,MD
ELEC,"Ocean Point, LTD - The Plaza",9800 Coastal Highway,Ocean City,21842,J1772,Free,38.411111,-75.056944,public,MD
ELEC,White Oak Medical Center Campus - 5th Floor,11890 Healing Way,White Oak,20904,J1772,Free,39.048904,-76.95674,public,MD
ELEC,The Tower Building,1101 Wootton Parkway,Rockville,20852,J1772,$1.50-$3.00/Hr Variable Parking Fee,39.067948,-77.1562346,public,MD
ELEC,CALT Building,101 College Parkway,Arnold,21012,J1772,$1.00/Hr Parking Fee,39.0489086,-76.5165644,public,MD
ELEC,Eldersburg Commons,6400 Ridge Road,Sykesville,21784,J1772,FREE,39.3974586,-76.9340852,public,MD
ELEC,Beacon Place Apartments at the Kentlands,916 Beacon Square Court,Gaithersburg,20878,J1772,$0.20/kWh Energy Fee,39.1255188,-77.2428589,public,MD
ELEC,Greenleigh @ Crossroads Bldg EE,6211 Greenleigh Avenue,Middle River,21220,J1772,$0.50-$0.75/Hr Variable Parking Fee,39.3602427,-76.40545305,public,MD
ELEC,Caroline Garage,1501 East Monument St.,Baltimore,21205,J1772,FREE,39.2981563,-76.5967227,public,MD
ELEC,McElderry Garage Lower Level,1501 McElderry Street,Baltimore,21205,J1772,FREE,39.2969395,-76.5965132,public,MD
ELEC,m. flats,10101 Twin Rivers Road,Columbia,21044,J1772,$0.00-$5.00/Hr Variable Parking Fee,39.2153158,-76.8656661,public,MD
ELEC,Orleans garage,1795 Orleans St,Baltimore,21231,J1772,FREE,39.2949489,-76.592286,public,MD
ELEC,"Walgreens - Columbia, MD #11949",5585 Twin Knolls Rd,Columbia,21045,J1772,$2.00/Hr Parking Fee,39.219991,-76.839574,public,MD
ELEC,Gaithersburg,10 Upper Rock Circle,Rockville,20850,J1772,FREE,39.1134145,-77.1845173,public,MD
ELEC,312 Marshall Avenue,312 Marshall Avenue,Laurel,20707,J1772,"$0.00-$5.00/Hr Variable Parking Fee, $0.00-$0.25/kWh Variable Energy Fee",39.0975821,-76.852907,public,MD
ELEC,8455 Colesville Road,8455 Colesville Road,Silver Spring,20910,J1772,FREE,38.9956338,-77.0297293,public,MD
ELEC,1200 East West,1200 East West Highway,Silver Spring,20910,J1772,FREE,38.989735,-77.0294815,public,MD
ELEC,"Walgreens - Randallstown, MD #6265",9110 Liberty Rd,Randallstown,21133,J1772,$2.00/Hr Parking Fee,39.369864,-76.8000069,public,MD
ELEC,4600 East West Highway,4600 East West Highway,Bethesda,20814,J1772,FREE,38.9844519,-77.0928692,public,MD
ELEC,Everly,97 Capital Court,Largo,20774,J1772,FREE,38.8924929,-76.841712,public,MD
ELEC,Cumberland Sleep Inn & Suites,13320 Ali Ghan Road Northeast,Cumberland,21502,J1772,$2.00/Hr Parking Fee,39.6720991,-78.7157204,public,MD
ELEC,Mount Washington Campus,"5801 Smith Avenue, Suite 1100",Baltimore,21209,J1772,FREE,39.3700905,-76.6554704,public,MD
ELEC,MedStar Good Samaritan Hospital,5601 Loch Raven Blvd,Baltimore,21239,J1772,FREE,39.358132,-76.5873585,public,MD
ELEC,UMBC - Stadium Lot,"Stadium Lot behind Warehouse, Hilltop Circle & Poplar Ave",Baltimore,21250,J1772,FREE,39.253321,-76.705762,public,MD
ELEC,Maple Lawn 9,8120 Maple Lawn Boulevard,Fulton,20759,J1772,$0.50-$0.75/Hr Variable Parking Fee,39.1520052,-76.9035423,public,MD
ELEC,Park Potomac HOA,12500 Park Potomac Ave.,Potomac,20854,J1772,"$0.00-$4.00/Hr Variable Parking Fee, $0.15/kWh Energy Fee",39.06018628,-77.15870193,public,MD
ELEC,Park Potomac Building D,12435 Park Potomac Ave.,Potomac,20854,J1772,FREE,39.0596169,-77.157087,public,MD
ELEC,J H @ Parkway,7231 Parkway Drive,Hanover,21076,J1772,FREE,39.173997,-76.7303521,public,MD
ELEC,Annapolis Junction-10170,10170 Junction Drive,Annapolis Junction,20701,J1772,$0.50-$0.75/Hr Variable Parking Fee,39.1240872,-76.7939661,public,MD
ELEC,The Pearl,180 High Park Ln,Silver Spring,20910,J1772,$1.00-$2.00/Hr Variable Parking Fee,38.9913212,-77.03384835,public,MD
ELEC,197 5 Story,231 Najoles Road,Millersville,21108,J1772,$0.50-$0.75/Hr Variable Parking Fee,39.095502,-76.629707,public,MD
ELEC,"HLSB, Parking Lot M",101 College Parkway,Arnold,21012,J1772,$1.00/Hr Parking Fee,39.0490696,-76.516773,public,MD
ELEC,"Walgreens - Waldorf, MD #9032",25 High Street,Waldorf,20602,J1772,$2.00/Hr Parking Fee,38.602321,-76.904329,public,MD
ELEC,Annapolis Corporate-181,181 Harry S Truman Parkway,Annapolis,21401,J1772,$0.50-$0.75/Hr Variable Parking Fee,38.97782908,-76.56005884,public,MD
ELEC,MOM's Organic Market - Frederick,5273 Buckeystown Pike,Frederick,21704,J1772,FREE,39.3759198,-77.412834,public,MD
ELEC,SHA - Hartford County,1400 Belcamp Road,Belcamp,21017,J1772,FREE,39.483421,-76.247386,public,MD
ELEC,Howard County Government - Dorsey Building,9250 Bendix Rd.,Columbia,21045,J1772,FREE,39.236994,-76.827476,public,MD
ELEC,Hawthorn Center,6175 Sunny Spring,Columbia,21044,J1772,$0.20/kWh Energy Fee,39.2071996,-76.8837771,public,MD
ELEC,MOM's Organic Market - Gaithersburg,10 Upper Rock Circle,Rockville,20850,J1772,FREE,39.1134145,-77.1845173,public,MD
ELEC,Wildwood Medical Center,10401 Old Georgetown Road,Bethesda,20814,J1772,"$0.00-$2.00/Hr Variable Parking Fee, $0.20/kWh Energy Fee",39.0760643,-77.1372362,public,MD
ELEC,Knighton Garage,1-A Colonial Avenue,Annapolis,21401,J1772,FREE,38.976809,-76.4993889,public,MD
ELEC,Main SEMA Location,4961 Tesla Drive,Bowie,20715,J1772,FREE,38.956993,-76.7078005,public,MD
ELEC,"Walgreens - Bel Air, MD #12748",1201 East Churchville Rd,Bel Air,21014,J1772,$2.00/Hr Parking Fee,39.5416769,-76.3300768,public,MD
ELEC,IVT Shops at Town Center Germantown LLC,19718 Germantown Road,Germantown,20874,J1772,FREE,39.1807395,-77.2662729,public,MD
ELEC,Middlebrook Square Shopping Ctr,11500 Middlebrook Road,Germantown,20876,J1772,"$0.00-$2.00/Hr Variable Parking Fee, $0.20/kWh Energy Fee",39.1792546,-77.2394376,public,MD
ELEC,Union Wharf,915 S. Wolfe Street,Baltimore,21231,J1772,FREE,39.28121,-76.588695,public,MD
ELEC,Fallsgrove Plaza,14995 Shady Grove Road,Rockville,20850,J1772,"$1.00-$3.00/Hr Variable Parking Fee, $0.25/kWh Energy Fee",39.1011405,-77.190535,public,MD
ELEC,McHenry Row - West Garage,1630 Whetstone Way,Baltimore,21230,J1772,$0.10/kWh Energy Fee,39.26927344,-76.60020429,public,MD
ELEC,8840 Stanford Blvd,8840 Stanford Boulevard,Columbia,21045,J1772,FREE,39.1896044,-76.8151959,public,MD
ELEC,2000 Tower Oaks,2000 Tower Oaks Boulevard,Rockville,20852,J1772,$0.55-$1.00/Hr Variable Parking Fee,39.066178,-77.153254,public,MD
ELEC,Horn Point Marina,105 Eastern Ave,Annapolis,21403,J1772,"$0.00-$2.00/Hr Variable Parking Fee, $0.35/kWh Energy Fee",38.969882,-76.47619,public,MD
ELEC,Community Resources,7932 Oppossumtown Pike,Frederick,21702,J1772,FREE,38.536855,-76.584724,public,MD
ELEC,Dulaney Center Parking Garage,855 Southerly Road,Towson,21204,J1772,$0.00-$5.00/Hr Variable Parking Fee,39.406849,-76.599635,public,MD
ELEC,"Walgreens - Baltimore, MD #5331",8050 Liberty Rd,Baltimore,21244,J1772,$2.00/Hr Parking Fee,39.354115,-76.756714,public,MD
ELEC,H.C.L.P. WRP,8900 Greenwood Place,Savage,20763,J1772,FREE,39.1255617,-76.8126149,public,MD
ELEC,Cromwell Center,810 Gleneagles Court,Towson,21286,J1772,$0.50-$0.95/Hr Variable Parking Fee,39.4028716,-76.5738872,public,MD
ELEC,Ashland Garage Level 6,900 North Washington Street,Baltimore,21205,J1772,FREE,39.301179,-76.5901802,public,MD
ELEC,Ashland Garage,900 N Washington St,Baltimore,21213,J1772,FREE,39.3003743,-76.5897116,public,MD
ELEC,Washington Blvd,9711 Washingtonian Boulevard,Gaithersburg,20878,J1772,$1.00-$10.00/Hr Variable Parking Fee,39.111969,-77.191232,public,MD
ELEC,Twin Oaks Shopping Center,711 Hungerford Drive,Rockville,20850,J1772,"$0.00-$2.00/Hr Variable Parking Fee, $0.20/kWh Energy Fee",39.0930982,-77.1528855,public,MD
ELEC,Maple Lawn 10 - 8110,8110 Maple Lawn Boulevard,Fulton,20759,J1772,$0.50-$0.95/Hr Variable Parking Fee,39.1525773,-76.9028133,public,MD
ELEC,Maple Lawn,8160 Maple Lawn Blvd,Fulton,20759,J1772,$0.50-$0.95/Hr Variable Parking Fee,39.14958699,-76.90562507,public,MD
ELEC,HTMI LLC,838 Rockville Pike,Rockville,20850,J1772,"$0.00-$2.00/Hr Variable Parking Fee, $0.20/kWh Energy Fee",39.0760643,-77.1372362,public,MD
ELEC,MOM's Organic Market - Jessup,"7351 Assateague Drive
#190",Jessup,20794,J1772,FREE,39.1695929,-76.7859472,public,MD
ELEC,Catalent Biologics / Paragon Gene Therapy,7555 Harmans Rd,Harmans,21077,J1772,FREE,39.150081,-76.701751,public,MD
ELEC,Promenade Towers,5225 Pooks Hill Road,Bethesda,20814,J1772,$0.20/kWh Energy Fee,39.0167159,-77.106924,public,MD
ELEC,Turner Hall Visitor Center,1201 Turner Hall,College Park,20742,J1772,FREE,38.986111,-76.936775,public,MD
ELEC,Patapsco Building,5201 Paint Branch Parkway,College Park,20740,J1772,FREE,38.9770725,-76.9246519,public,MD
ELEC,Courtyard by Marriott Bowie,16800 Science DR,Bowie,20715,J1772,$1.00-$2.00/Hr Variable Parking Fee,38.962643,-76.712979,public,MD
ELEC,Horn Point Lab,2020 Horns Point Rd,Cambridge,21613,J1772,FREE,38.5849647,-76.1378611,public,MD
ELEC,26060,540 National Business Parkway,Annapolis Junction,20701,J1772,$0.20/kWh Energy Fee,39.1376525,-76.7697546,public,MD
ELEC,Country Inn & Suites by Radisson - Baltimore North,8825 Yellow Brick Road,Rosedale,21237,J1772,Free,39.3397257,-76.4812653,public,MD
ELEC,The Met,10500 Grand Central Avenue,Owings Mills,21117,J1772,FREE,39.4069961,-76.7819518,public,MD
ELEC,Inner Harbor,801 Key Highway,Baltimore,21230,J1772,Free,39.280452,-76.605982,public,MD
ELEC,Crossroads Professional Building,7676 New Hampshire Ave,Takoma Park,20912,J1772,$1.00/Hr Parking Fee,38.9875017,-76.9885435,public,MD
ELEC,Fairfield Inn and Suites Hagerstown,89 All Star Court,Hagertown,21740,J1772,$0.30/kWh Energy Fee,39.6032127,-77.6884737,public,MD
ELEC,"PGC Brandywine, MD",12911 Cherry Tree Crossing Road,Brandywine,20613,J1772,$0.00-$1.00/Hr Variable Parking Fee,38.7113768,-76.8394143,public,MD
ELEC,College Square Shopping Center,444 WMC Drive,Westminster,21158,J1772,FREE,39.5867343,-77.0134136,public,MD
ELEC,La Quinta Inn - Waldorf,11770 Business Park Drive,Waldorf,20601,J1772,Free,38.63983,-76.89878,public,MD
ELEC,Blue Belly Farms Corp,9201 Longs Mill Rd,Rocky Ridge,21778,J1772,$2 per charge. Pay via Venmo: Jidgette-Vernick or Paypal: TeslaSolarRoof,39.584041,-77.344023,public,MD
ELEC,Cambria Hotel - Ocean City,13 St. Louis Ave,Ocean City,21842,J1772,Free,38.333153,-75.088885,public,MD
ELEC,Gateway Hotel and Suites,11 N Baltimore Ave,Ocean City,21842,J1772,Free,38.332804,-75.086093,public,MD
ELEC,1801 Rockville Pike,1801 Rockville Pike,Rockville,20852,J1772,$1.50/Hr Parking Fee,39.0595955,-77.1229774,public,MD
ELEC,33000,7160 Riverwood Drive,Columbia,21046,J1772,$0.20/kWh Energy Fee,39.1751001,-76.876485,public,MD
ELEC,The Vine,10945 Price Manor Way,Laurel,20723,J1772,FREE,39.1495173,-76.8988477,public,MD
ELEC,No Contacts Offline,4961 Tesla Drive,Bowie,20715,J1772,FREE,38.956517,-76.70764,public,MD
ELEC,The Alaire,5750 Fishers Lane,Rockville,20852,J1772,Free,39.062886,-77.117535,public,MD
ELEC,Main Location,4961 Tesla Dr Ste A,Bowie,20715,J1772,FREE,38.956517,-76.70764,public,MD
ELEC,SemaConnect US R&D,4961 Tesla Drive,Bowie,20715,J1772 J1772COMBO,"$0.00-$4.00/Hr Variable Parking Fee, $0.00-$1.00/kWh Variable Energy Fee",38.9564819,-76.7075866,public,MD
ELEC,Lakeside Retail / Office Center,8865 Stanford Blvd,Columbia,21045,J1772,"$1.00-$2.00/Hr Variable Parking Fee, $0.10/kWh Energy Fee",39.1909386,-76.8181249,public,MD
ELEC,UMCES Car Port,2020 Horns Point Road,Cambridge,21613,J1772,FREE,38.5849647,-76.1378611,public,MD
ELEC,Three Irvington Center,800 King Farm Blvd.,Rockville,20850,J1772,$1.00-$10.00/Hr Variable Parking Fee,39.1102166,-77.1818813,public,MD
ELEC,EMOB,5901 E. Lombard St,Baltimore,21224,J1772,FREE,39.2950263,-76.5478517,public,MD
ELEC,Verde at Greenbelt Station,8010 Greenbelt Station Pkwy,Greenbelt,20770,J1772,FREE,39.0003833,-76.9180057,public,MD
ELEC,Symphony Center Garage,1030 Park Avenue,Baltimore,21201,J1772,$0.00-$2.00/Hr Variable Parking Fee,39.30313041,-76.6196167,public,MD
ELEC,The Willard,5000 Waverly way,Owings Mills,21117,J1772,FREE,39.4078505,-76.784312,public,MD
ELEC,200 Harry S Truman Parkway,"200 Harry S Truman Parkway,",Annapolis,21401,J1772,"$2.00/Hr Parking Fee , $0.14/kWh Energy Fee",38.9772453,-76.5554159,public,MD
ELEC,Timbrook Ford - Oakland,12532 Garrett Hwy,Oakland,21550,J1772,Free,39.4193693,-79.39939068,public,MD
ELEC,City Hall,15901 Excalibur Road,Bowie,20716,J1772,FREE,38.942721,-76.7300088,public,MD
ELEC,Symbioscience,20425 Seneca Meadows Parkway,Germantown,20876,J1772,FREE,39.1983001,-77.2572602,public,MD
ELEC,Solaire 7077,7077 Woodmont Avenue,Bethesda,20815,J1772,$1.00/Hr Parking Fee,38.9802978,-77.0926444,public,MD
ELEC,Ridgely Oaks Professional Center,621 Ridgely Avenue,Annapolis,21401,J1772,FREE,38.9967584,-76.5166222,public,MD
ELEC,Elkridge Estates of Roland Park,6025 Roland Ave.,Baltimore,21210,J1772,$0.20/kWh Energy Fee,39.3737442,-76.6338932,public,MD
ELEC,SHS Frederick,111 Byte Drive,Frederick,21702,J1772,$0.30/kWh Energy Fee,39.458751,-77.406626,public,MD
ELEC,"Walgreens - Baltimore, MD #10076",2560 Quarry Lake Drive,Baltimore,21209,J1772,$2.00/Hr Parking Fee,39.3847962,-76.686881,public,MD
ELEC,805 King Farm,805 King Farm Blvd.,Rockville,20850,J1772,$1.00-$10.00/Hr Variable Parking Fee,39.111029,-77.182107,public,MD
ELEC,Maryland Dept. of Transportation Corporate Headquarters,7201 Corporate Dr.,Hanover,21076,J1772,FREE,39.1871889,-76.6977523,public,MD
ELEC,Tate Access Floors - MD,7510 Montevideo Rd,Jessup,20794,J1772,FREE,39.164904,-76.7720779,public,MD
ELEC,"Walgreens - Glen Burnie, MD #9028",6700 Ritchie Highway,Glen Burnie,21061,J1772,$2.00/Hr Parking Fee,39.1938043,-76.6135573,public,MD
ELEC,CRSC Building,101 College Parkway,Arnold,21012,J1772,$1.00/Hr Parking Fee,39.0489086,-76.5165644,public,MD
ELEC,888 Bestgate Road,888 Bestgate Road,Annapolis,21401,J1772,$0.50-$0.95/Hr Variable Parking Fee,38.994233,-76.5435462,public,MD
ELEC,810 Bestgate Road,810 Bestgate Road,Annapolis,21401,J1772,$0.50-$0.75/Hr Variable Parking Fee,38.9951124,-76.537177,public,MD
ELEC,CBF,Herndon Avenue,Annapolis,21403,J1772,FREE,38.9360405,-76.4645131,public,MD
ELEC,"Walgreens - Lusby, MD #10402",11745 Rousby Hall Rd,Lusby,20657,J1772,$2.00/Hr Parking Fee,38.37316,-76.442981,public,MD
ELEC,R.V. Truitt Lab,129 Williams Street,Solomons,20688,J1772,FREE,38.3194811,-76.4537911,public,MD
ELEC,Settler\'s Landing Apartments,45086 Voyage Path,California,20619,J1772,$0.00-$5.00/Hr Variable Parking Fee,38.299079,-76.5215003,public,MD
ELEC,Perdue North,1101 Camden Ave.,Salisbury,21801,J1772,FREE,38.3444766,-75.6058571,public,MD
ELEC,Cockeysville,10500 York Road,Cockeysville,21030,J1772,FREE,39.4751771,-76.6420841,public,MD
ELEC,Electric Operations Building,7309 Windsor Mill Road,Windsor Mill,21244,J1772,FREE,39.3372168,-76.7570532,public,MD
ELEC,Fleet Building,7310 Windsor Boulevard,Windsor Mill,21244,J1772,FREE,39.3337299,-76.7597036,public,MD
ELEC,BGE Front St,1068 North Front Street,Baltimore,21202,J1772,FREE,39.2973695,-76.6068302,public,MD
ELEC,Spring Gardens,1899 Leadenhall Street,Baltimore,21230,J1772,FREE,39.2678473,-76.6182956,public,MD
ELEC,Pumphrey Station,4547 Annapolis Road,Baltimore,21227,J1772,FREE,39.2288485,-76.6395344,public,MD
ELEC,Piney Orchard,730 New Waugh Chapel Road,Odenton,21113,J1772,FREE,39.071568,-76.719388,public,MD
ELEC,Annapolis,112 West Street,Annapolis,21401,J1772,FREE,38.9781489,-76.4973566,public,MD
ELEC,Bethesda Crescent,7475 Wisconsin Avenue,Bethesda,20814,J1772,FREE,38.9843643,-77.0936894,public,MD
ELEC,Murn Properties,7200 Alden Way,Hanover,21076,J1772,Free,39.185814,-76.740564,public,MD
ELEC,Bel Air Town Center,508 Baltimore Pike,Bel Air,21014,J1772,FREE,39.5270375,-76.3547139,public,MD
ELEC,Rutland Garage,1805 East Madison Street,Baltimore,21205,J1772,FREE,39.2992877,-76.5921643,public,MD
ELEC,Burtonsville Office Park,3915 National Drive,Burtonsville,20866,J1772,$0.12-$0.20/kWh Variable Energy Fee,39.112093,-76.9300506,public,MD
ELEC,1001 Fleet Street,1001 Fleet Street,Baltimore,21202,J1772,$1.00-$5.00/Hr Variable Parking Fee,39.2840184,-76.5994792,public,MD
ELEC,Fieldstone Farm Apartments,800 Hydric Court,Odenton,21113,J1772,$0.30/kWh Energy Fee,39.0511684,-76.707316,public,MD
ELEC,Fairway Hills Golf Club,5100 Columbia Road,Columbia,21044,J1772,$0.20/kWh Energy Fee,39.2362555,-76.8441899,public,MD
ELEC,Tucker Road Ice Rink,177 Tucker Road,Fort Washington,20744,J1772,FREE,38.7851372,-76.9786926,public,MD
ELEC,Sail Cloth Factory,121 S. Fremont Avenue,Baltimore,21201,J1772,$3.00/Hr Parking Fee,39.2862838,-76.6271014,public,MD
ELEC,Miller Brothers Cadillac,9035 Baltimore National Pike,Ellicott City,21042,J1772,Free,39.276107,-76.823373,public,MD
ELEC,(NIAID) National Institute of Allergy and infectious Diseases,5601 Fishers Lane,Rockville,20852,J1772,Free,39.064175,-77.112563,public,MD
ELEC,White Oak Medical Center Campus - 4th Floor,12000 Plum Orchard Dr,Silver Springs,20904,J1772,Free,39.048904,-76.9536388,public,MD
ELEC,White Oak Medical Center Campus Parking Garage - 1st floor,12000 Plum Orchard Dr,White Oak,20904,J1772,Free,39.048707,-76.9536388,public,MD
ELEC,Galvan at Twinbrook,1801 Chapman Ave,Rockville,20852,J1772,Free,39.060001,-77.121076,public,MD
ELEC,8001 Woodmont Apartments,8001 Woodmont Ave,Bethesda,20814,J1772,Free,38.9898679,-77.096218,public,MD
ELEC,Public Parking Lot,312 Main Street,Laurel,20707,J1772,Free,39.104169,-76.844478,public,MD
ELEC,Luxury Boutique Hotel - Tesla Destination,134 134 Prince George Street,Annapolis,21401,TESLA,Free,38.9784295,-76.4862319,public,MD
ELEC,Rod 'N' Reel Resort - Tesla Destination,4160 Mears Ave,Chesapeake Beach,20732,TESLA,Free,38.690484,-76.5335407,public,MD
ELEC,Heritage Subaru Catonsville,6624 Baltimore National Pike,Baltimore,21228,J1772,Free,39.288636,-76.768253,public,MD
ELEC,Whole Foods - Central Ave MD,711 S Central Ave,Baltimore,21202,J1772,Free,39.282715,-76.598431,public,MD
ELEC,Home 2 Suites by Hilton Owings Mills,4514 Painters Mill Road,Owings Mills,21117,J1772,Free,39.39617471,-76.78838512,public,MD
ELEC,PEPCO City Hall Location,Yale Ave,College Park,20740,J1772,"$2 per hour, $1 minimum",38.98138,-76.93643,public,MD
ELEC,7Charge - Beltsville,11350 Baltimore Ave,Beltsville,20705,CHADEMO J1772COMBO,$0.35 per kWh; Idle parking $1per minute after a 15 minute grace period,39.03989,-76.90487,public,MD
ELEC,Noah Hillman Parking Garage,150 Gorman St,Annapolis,21401,CHADEMO J1772COMBO,$3.00 per hour parking fee,38.97705,-76.4894,public,MD
ELEC,Royal Farms - Tesla Supercharger,8480 Ocean Gateway,Easton,21601,TESLA,$0.33 per kWh,38.782132,-76.061329,public,MD
ELEC,Royal Farms - Tesla Supercharger,7136 Montevideo Rd,Elkridge,20794,TESLA,$0.36 per kWh,39.174251,-76.776827,public,MD
ELEC,Hotel Floyd,120 Wilson St,Floyd,24091,J1772,Free for guests; $10 for non-guests,36.910575,-80.31736,public,VA
ELEC,Passport Nissan - Alexandria,150 S Pickett St,Alexandria,22304,CHADEMO J1772 J1772COMBO,Free,38.80967,-77.12219,public,VA
ELEC,Priority Nissan - Chantilly,14840 Stonecroft Center Ct,Chantilly,20151,CHADEMO J1772,Free,38.8998,-77.46033,public,VA
ELEC,Colonial Nissan,200 Myers Dr,Charlottesville,22901,CHADEMO J1772,Free,38.08492599,-78.47341454,public,VA
ELEC,Brown's Fairfax Nissan,11010 Fairfax Blvd,Fairfax,22030,CHADEMO J1772 J1772COMBO,Free,38.85366,-77.32474,public,VA
ELEC,Pomoco Nissan - Hampton,1134 W Mercury Blvd,Hampton,23666,CHADEMO J1772,Free,37.04249,-76.38833,public,VA
ELEC,Sheehy Nissan - Manassas,9010 Liberia Ave,Manassas,20110,CHADEMO J1772 J1772COMBO,Free,38.760854,-77.459274,public,VA
ELEC,Shell - YESS! Convenience 4U,328 Rives Rd,Petersburg,23805,NEMA520,$5 per hour,37.175139,-77.352948,public,VA
ELEC,First Team Nissan,6520 Peters Creek Rd,Roanoke,24019,CHADEMO J1772,Free,37.34598,-79.9627,public,VA
ELEC,Brown's Dulles Nissan,45155 Towlern Pl,Sterling,20166,CHADEMO J1772 J1772COMBO,Free,39.010459,-77.438399,public,VA
ELEC,Priority Nissan,8525 Leesburg Pike,Vienna,22182,CHADEMO J1772,Free,38.92684,-77.24096,public,VA
ELEC,Tri-State Nissan,1230 Millwood Pike,Winchester,22602,CHADEMO J1772 J1772COMBO,Free,39.156514,-78.147297,public,VA
ELEC,James River Air Conditioning,1905 Westmoreland St,Richmond,23230,J1772,Free,37.578536,-77.48754,public,VA
ELEC,New River Nissan,2130 N Franklin St,Christiansburg,24073,J1772,Free,37.158,-80.4204,public,VA
ELEC,Hyman Brothers Nissan,11841 Midlothian Turnpike,Midlothian,23113,CHADEMO J1772,Free,37.5036,-77.61842,public,VA
ELEC,Stone's Cove Kitbar,2403 Centreville Rd,Herndon,20171,J1772,Free,38.951695,-77.409238,public,VA
ELEC,Richmond Ford Lincoln,4600 W Broad St,Richmond,23230,J1772,Free,37.578775,-77.489409,public,VA
ELEC,Randolph-Macon College - Andrews Hall,420 Henry St,Ashland,23005,J1772,Free,37.764986,-77.476715,public,VA
ELEC,Harrisonburg Electric Commission,89 W Bruce St,Harrisonburg,22801,J1772,Free,38.447533,-78.870744,public,VA
ELEC,Hall Nissan,3417 Western Branch Blvd,Chesapeake,23321,CHADEMO J1772 J1772COMBO,Free,36.86525,-76.41779,public,VA
ELEC,Hall Nissan,3417 Western Branch Blvd,Chesapeake,23321,J1772,Free,36.86525,-76.41779,private,VA
ELEC,Nissan of Chesapeake,930 N Battlefield Blvd,Chesapeake,23320,CHADEMO,Free,36.75306,-76.2475,public,VA
ELEC,Loyalty Nissan,16301 Priority Way,Chester,23831,CHADEMO J1772,Free,37.304917,-77.392372,public,VA
ELEC,Loyalty Nissan,16301 Priority Way,Chester,23831,J1772,Free,37.304917,-77.392372,private,VA
ELEC,Robert Woodall Nissan,132 Union St Bridge Rd,Danville,24540,J1772,Free,36.59588,-79.39687,public,VA
ELEC,Robert Woodall Nissan,132 Union St Bridge Rd,Danville,24540,J1772,Free,36.59588,-79.39687,private,VA
ELEC,Lynchburg Nissan,18588 Forest Rd,Forest,24551,J1772,Free,37.385661,-79.243911,public,VA
ELEC,Lynchburg Nissan,18588 Forest Rd,Forest,24551,J1772,Free,37.385661,-79.243911,private,VA
ELEC,Pohanka Nissan of Fredericksburg,5200 Jefferson Davis Hwy,Fredericksburg,22408,J1772,Free,38.255149,-77.496844,private,VA
ELEC,Harrisonburg Nissan,2275 E Market St,Harrisonburg,22801,J1772,Free,38.422471,-78.838899,public,VA
ELEC,Harrisonburg Nissan,2275 E Market St,Harrisonburg,22801,J1772,Free,38.422471,-78.838899,private,VA
ELEC,Hart Nissan,6564 Mechanicsville Pike,Mechanicsville,23111,CHADEMO J1772 J1772COMBO,Free,37.61341,-77.33577,public,VA
ELEC,Hart Nissan,6564 Mechanicsville Pike,Mechanicsville,23111,J1772,Free,37.61341,-77.33577,private,VA
ELEC,Priority Nissan - Newport News,12925 Jefferson Ave,Newport News,23608,J1772,Free,37.151806,-76.531052,public,VA
ELEC,Priority Nissan - Newport News,12925 Jefferson Ave,Newport News,23608,CHADEMO J1772,Free,37.151806,-76.531052,private,VA
ELEC,Nissan of Norfolk,1250 N Military Hwy,Norfolk,23502,CHADEMO J1772,Free,36.8662,-76.20968,public,VA
ELEC,Nissan of Norfolk,1250 N Military Hwy,Norfolk,23502,J1772,Free,36.8662,-76.20968,private,VA
ELEC,Nissan of Richmond,11401 W Broad St,Richmond,23233,CHADEMO J1772,Free,37.650319,-77.609022,public,VA
ELEC,Nissan of Richmond,11401 W Broad St,Richmond,23233,J1772,Free,37.650319,-77.609022,private,VA
ELEC,Gunter Nissan,4760 Greensboro Rd,Ridgeway,24148,J1772,Free,36.629501,-79.860071,public,VA
ELEC,Gunter Nissan,4760 Greensboro Rd,Ridgeway,24148,J1772,Free,36.629501,-79.860071,private,VA
ELEC,Pohanka Nissan - Stafford,1 Coachman Cir,Stafford,22554,CHADEMO J1772 J1772COMBO,Free,38.46878,-77.40007,public,VA
ELEC,Pohanka Nissan - Stafford,1 Coachman Cir,Stafford,22554,J1772,Free,38.46878,-77.40007,private,VA
ELEC,Valley Nissan of Staunton,297 Lee Jackson Hwy,Staunton,24401,J1772,Free,38.11898,-79.0686,public,VA
ELEC,Valley Nissan of Staunton,297 Lee Jackson Hwy,Staunton,24401,J1772,Free,38.11898,-79.0686,private,VA
ELEC,Hall Nissan - Virginia Beach,3757 Booney Rd,Virginia Beach,23452,CHADEMO J1772 J1772COMBO,Free,36.83882,-76.10243,public,VA
ELEC,Cowles Nissan,14777 Jefferson Davis Hwy,Woodbridge,22191,CHADEMO J1772,Free,38.62938,-77.27396,public,VA
ELEC,Cowles Nissan,14777 Jefferson Davis Hwy,Woodbridge,22191,J1772,Free,38.62938,-77.27396,private,VA
ELEC,Blue Ridge Nissan,1405 E Main St,Wytheville,24382,J1772,Free,36.949705,-81.066941,public,VA
ELEC,Blue Ridge Nissan,1405 E Main St,Wytheville,24382,J1772,Free,36.949705,-81.066941,private,VA
ELEC,Passport Nissan - Alexandria,150 S Pickett St,Alexandria,22304,J1772,Free,38.80967,-77.12219,private,VA
ELEC,Priority Nissan - Chantilly,14840 Stonecroft Center Ct,Chantilly,20151,J1772,Free,38.8998,-77.46033,private,VA
ELEC,Colonial Nissan,200 Myers Dr,Charlottesville,22901,J1772,Free,38.08492599,-78.47341454,private,VA
ELEC,New River Nissan,2130 N Franklin St,Christiansburg,24073,J1772,Free,37.158,-80.4204,private,VA
ELEC,Pomoco Nissan - Hampton,1134 W Mercury Blvd,Hampton,23666,J1772,Free,37.04249,-76.38833,private,VA
ELEC,Sheehy Nissan - Manassas,9010 Liberia Ave,Manassas,20110,J1772,Free,38.760854,-77.459274,private,VA
ELEC,Hyman Brothers Nissan,11841 Midlothian Turnpike,Midlothian,23113,J1772,Free,37.5036,-77.61842,private,VA
ELEC,First Team Nissan,6520 Peters Creek Rd,Roanoke,24019,J1772,Free,37.34598,-79.9627,private,VA
ELEC,Brown's Dulles Nissan,45155 Towlern Pl,Sterling,20166,J1772,Free,39.010459,-77.438399,private,VA
ELEC,Tri-State Nissan,1230 Millwood Pike,Winchester,22602,J1772,Free,39.156514,-78.147297,private,VA
ELEC,Wynne Ford,1020 W Mercury Blvd,Hampton,23666,J1772,Free,37.044549,-76.380595,public,VA
ELEC,Magic City Ford Lincoln Isuzu,809 Williamson Rd NE,Roanoke,24016,J1772,Free,37.280149,-79.933227,public,VA
ELEC,Ashland Town Hall,210 S Railroad Ave,Ashland,23005,J1772,Free,37.758078,-77.48209,public,VA
ELEC,University of Virginia - Central Grounds Garage,400 Emmet St S,Charlottesville,22903,J1772 J1772COMBO,$2 per hour parking fee,38.036315,-78.506591,public,VA
ELEC,Berglund Ford Mazda,834 E Main St,Salem,24153,J1772,Free,37.294549,-80.045203,public,VA
ELEC,Martin Horn,210 Carlton Rd,Charlottesville,22902,J1772,Free,38.022977,-78.468836,public,VA
ELEC,Marion Automotive Group,1025 N Main St,Marion,24354,J1772,Free,36.843713,-81.503731,public,VA
ELEC,Sheehy Ford Lincoln,10601 Midlothian Turnpike,Midlothian,23235,J1772,Free,37.506999,-77.592621,public,VA
ELEC,Casey Chevrolet,11700 Jefferson Ave,Newport News,23606,J1772,Free,37.075503,-76.474858,public,VA
ELEC,Hall Ford Lincoln,12896 Jefferson Ave,Newport News,23608,J1772,Free,37.148296,-76.525986,public,VA
ELEC,Rick Hendrick Chevrolet Buick GMC,12050 W Broad St,Richmond,23233,J1772,Free,37.658874,-77.630953,public,VA
ELEC,Omni - Richmond Hotel,100 S 12th St,Richmond,23219,TESLA,Free,37.535744,-77.435268,public,VA
ELEC,Whole Foods Market,1800 Laskin Rd,Virginia Beach,23454,J1772,Free,36.850535,-76.027886,public,VA
ELEC,Sheehy Ford,11450 Washington Hwy,Ashland,23005,J1772,Free,37.72489,-77.469528,public,VA
ELEC,Duncan Ford Lincoln,125 Jennelle Rd,Blacksburg,24060,J1772,Free,37.179806,-80.411408,public,VA
ELEC,Inn at Virginia Tech,901 Prices Fork Rd,Blacksburg,24060,J1772,Free,37.22983,-80.429844,public,VA
ELEC,Village Center,2387 Warm Hearth Dr,Blacksburg,24060,J1772,$1 per hour,37.197398,-80.419887,public,VA
ELEC,CMA's Colonial Chevrolet,12420 Jefferson Davis Hwy,Chester,23831,J1772 J1772COMBO,Free,37.355577,-77.414228,public,VA
ELEC,Hampton Chevrolet,1073 W Mercury Blvd,Hampton,23666,J1772,Free,37.041065,-76.384783,public,VA
ELEC,Williamsburg KOA,4000 Newman Rd,Williamsburg,23188,NEMA520,"$8 per session, Free if camping",37.362569,-76.710786,public,VA
ELEC,Wytheville KOA,231 KOA Rd,Wytheville,24382,NEMA520,$20 per session,36.933124,-81.004196,public,VA
ELEC,Scope Arena Parking,201 E Brambleton Ave,Norfolk,23510,CHADEMO J1772COMBO,Free,36.852443,-76.285958,public,VA
ELEC,Holiday Trav-L-Park,1075 General Booth Blvd,Virginia Beach,23451,NEMA1450,Free,36.804863,-75.997863,public,VA
ELEC,Oakhurst Inn,100 Oakhurst Cir,Charlottesville,22903,J1772,Free,38.031941,-78.506798,public,VA
ELEC,City of Roanoke,102 Market St SE,Roanoke,24011,CHADEMO,$3 per session,37.272567,-79.938925,public,VA
ELEC,New Kent Pit Stop,6201 Chesapeake Cir,New Kent,23124,CHADEMO J1772COMBO,Free,37.490299,-77.027031,public,VA
ELEC,Pearmund Cellars,6190 Georgetown Rd,Broad Run,20137,J1772,Free,38.784327,-77.739199,public,VA
ELEC,Virginia Clean Cities - James Madison University,1401 Technology Dr,Harrisonburg,22802,J1772,Free,38.465788,-78.852888,public,VA
ELEC,NEXCOM - Norfolk,3280 Virginia Beach Blvd,Virginia Beach,23452,J1772,$0.99 per hour,36.844415,-76.083156,private,VA
ELEC,Historic Hampton Inn,401 E Nelson St,Lexington,24450,J1772,$0.25 per minute,37.779904,-79.439043,public,VA
ELEC,Whole Foods Market,12080 Jefferson Ave,Newport News,23606,J1772,Free,37.102615,-76.489655,public,VA
ELEC,Brown Harris Wealth Management,309 N Main St,Culpeper,22701,J1772,Free,38.475325,-77.995127,public,VA
ELEC,Whole Foods Market,11660 Plaza America Dr,Reston,20190,J1772,Free,38.951729,-77.349388,public,VA
ELEC,Villa Appalaccia Winery,752 Rock Castle Gorge Rd,Floyd,24091,NEMA520,Free,36.79849,-80.373918,public,VA
ELEC,Malloy Cadillac Co,2700 Valley Ave,Winchester,22601,CHADEMO J1772,Free,39.152172,-78.186911,private,VA
ELEC,Malloy Toyota Scion,400 Weems Ln,Winchester,22601,J1772,Free,39.162417,-78.182466,public,VA
ELEC,Jack Evans Chevrolet,125 S Royal Ave,Front Royal,22630,J1772,Free,38.916118,-78.193932,public,VA
ELEC,Tiger Solar,331 N Lewis St,Staunton,24401,J1772,Free,38.155451,-79.074392,public,VA
ELEC,Southside Regional Medical Center,200 Medical Park Blvd,Petersburg,23805,J1772,Free,37.183654,-77.361466,private,VA
ELEC,Priority Nissan,6390 Richmond Rd,Williamsburg,23188,CHADEMO J1772,Free,37.33984,-76.75285,public,VA
ELEC,Virginia Tech - Corporate Research Center,1691 Innovation Dr,Blacksburg,24060,J1772,Free,37.20805,-80.41894,public,VA
ELEC,Richmond Electricians' Joint Apprenticeship and Training Center,11255 Air Park Rd,Ashland,23005,J1772,Free,37.708642,-77.444334,public,VA
ELEC,Suttle Motor Corp,12525 Jefferson Ave,Newport News,23602,J1772,$0.50/kWh,37.128079,-76.51372,public,VA
ELEC,Eastern Mennonite University,1307 Park Rd,Harrisonburg,22802,J1772,Free,38.472406,-78.878672,public,VA
ELEC,MOM's Organic Market,14470 Smoketown Rd,Woodbridge,22193,CHADEMO J1772,Free,38.638399,-77.299496,public,VA
ELEC,Cavalier Ford Lincoln,1515 S Military Hwy,Chesapeake,23320,J1772,Free,36.797184,-76.235495,public,VA
ELEC,Ourisman Chevrolet,1800 Old Richmond Rd,Alexandria,22303,J1772,Free,38.79201,-77.061593,private,VA
ELEC,Omni - Charlottesville,212 Ridge McIntire Rd,Charlottesville,22902,J1772,Free for guests; $10 valet fee,38.031615,-78.483664,public,VA
ELEC,Priority Chevrolet,2216 Old Greenbrier Rd,Chesapeake,23325,J1772,Free,36.798927,-76.233816,public,VA
ELEC,Boyd Chevrolet Buick GMC,240 E Cloverleaf Dr,Emporia,23847,J1772,Free,36.704893,-77.541842,public,VA
ELEC,Beach Ford,2717 Virginia Beach Blvd,Virginia Beach,23452,J1772,Free,36.841628,-76.066931,public,VA
ELEC,Crossroads Ford Mazda,4500 Whitehill Blvd,Prince George,23875,J1772,Free,37.250286,-77.37319,public,VA
ELEC,Luck Chevrolet,516 S Washington Hwy,Ashland,23005,J1772,Free,37.746924,-77.47202,public,VA
ELEC,Strosnider Chevrolet,5200 Oaklawn Blvd,Hopewell,23860,J1772,Free,37.260555,-77.324621,private,VA
ELEC,Casey Toyota,601 E Rochambeau Dr,Williamsburg,23188,J1772,Free,37.350163,-76.733936,private,VA
ELEC,Giant Foods,621 E Glebe Rd,Alexandria,23301,J1772,Free,38.832184,-77.050501,public,VA
ELEC,Rick Hendrick Chevrolet of Norfolk,6252 E Virginia Beach Blvd,Norfolk,23502,J1772 J1772COMBO,Free,36.855534,-76.190651,public,VA
ELEC,University of Richmond - Chapel Parking,22 Westhampton Way,Richmond,23226,J1772,Free,37.57288838,-77.53971553,public,VA
ELEC,Radley Chevrolet,3670 Jefferson Davis Hwy,Fredericksburg,22404,J1772,Free,38.271078,-77.491973,public,VA
ELEC,Massanutten Resort,3980 Massanutten Dr,McGaheysville,22840,NEMA1450,Free,38.404061,-78.754751,public,VA
ELEC,Drive Square Inc,5606 General Washington Dr,Alexandria,22312,J1772,Free,38.799443,-77.163044,public,VA
ELEC,Royal Chevrolet,4502 W Broad St,Richmond,23230,J1772,Free,37.577354,-77.48773,public,VA
ELEC,Comfort Inn & Suites,5716 S Van Dorn St,Alexandria,22310,J1772,$2 per hour,38.794947,-77.137384,public,VA
ELEC,City of Fredericksburg - Sophia Street Garage,600 Sophia St,Fredericksburg,22401,J1772,Free,38.300424,-77.456524,public,VA
ELEC,Daniel's Run Peace Church,3729 Old Lee Hwy,Fairfax,22030,J1772,Free,38.85116,-77.297848,public,VA
ELEC,Riverwalk Landing Parking Garage,330 Water St,Yorktown,23690,J1772,Free,37.23833,-76.508866,public,VA
ELEC,York County - Poquoson Courthouse,300 Ballard St,Yorktown,23690,J1772,Free,37.232314,-76.511345,public,VA
ELEC,Yorktown Library,8500 George Washington Memorial Hwy,Yorktown,23692,J1772,Free,37.194887,-76.490472,public,VA
ELEC,25th Street Parking Garage,336 25th St,Virginia Beach,23451,J1772,$5 per session; pay in garage,36.852662,-75.97835,public,VA
ELEC,Montpelier Visitor Center,13425 Visitor Center Rd,Montpelier Station,22957,J1772 TESLA,Free,38.218004,-78.17046,public,VA
ELEC,Lewis Hall,13384 Laundry Rd,Montpelier Station,22957,J1772 TESLA,Free,38.218992,-78.166102,public,VA
ELEC,MOM's Organic Market,1901 N Veitch St,Arlington,22201,J1772,Free,38.89641,-77.086062,public,VA
ELEC,Colonial Place Parking Garage,2107 Wilson Blvd,Arlington,22201,J1772,Free,38.891865,-77.085265,public,VA
ELEC,Rappahannock Electric Co-op - Culpeper Office,13252 Cedar Run Church Rd,Culpeper,22701,J1772,Free,38.43679,-78.00952,private,VA
ELEC,Volvo Cars Fredericksburg,3410 Fall Hill Ave,Fredericksburg,22401,J1772,Free,38.312221,-77.506525,public,VA
ELEC,Tesla Service Center,9850 W Broad St,Glen Allen,23060,TESLA,Free,37.643994,-77.564259,public,VA
ELEC,Luray Visitor Center,18 Campbell St,Luray,22835,J1772,Free,38.663811,-78.460394,public,VA
ELEC,Norfolk Botanical Gardens,6700 Azalea Garden Rd,Norfolk,23518,J1772 TESLA,Free,36.904917,-76.209635,public,VA
ELEC,Bluegreen Vacations - Patrick Henry Square,249 York St,Williamsburg,23185,J1772,Free,37.270224,-76.687178,public,VA
ELEC,Williamsburg Lodge,305 S England St,Williamsburg,23185,J1772,Free,37.269064,-76.697804,public,VA
ELEC,Best Western - Williamsburg,351 York St,Williamsburg,23185,J1772,Free,37.269286,-76.685716,public,VA
ELEC,JBG - Rosslyn North - Arlington VA,1911 N. Fort Myer Drive.,Arlington,22209,J1772,Free,38.89777247,-77.07149618,public,VA
ELEC,BMW of Charlottesville,1295 Richmond Rd,Charlottesville,22911,J1772,Free,38.0333263,-78.4518157,public,VA
ELEC,Leckner Nissan - Springfield,6570 Amherst Ave,Springfield,22150,J1772,Free,38.776428,-77.18558,public,VA
ELEC,New Quarter Park,1000 Lakeshead Dr,Williamsburg,23185,J1772,Free,37.291553,-76.644064,public,VA
ELEC,Arlington Mill Community Center,909 S Dinwiddie St,Arlington,22206,J1772,Free,38.856754,-77.112304,public,VA
ELEC,1850 Towers Crescent,1850 Towers Crescent Plaza,Vienna,22182,J1772,Free; parking fee,38.915838,-77.220807,public,VA
ELEC,The Martha Washington Inn & Spa - Tesla Destination,150 W Main St,Abingdon,24210,TESLA,Free,36.709813,-81.974954,public,VA
ELEC,Afton Mountain Bed & Breakfast - Tesla Destination,10273 Rockfish Valley Hwy,Afton,22920,TESLA,Free,37.9827904,-78.8400318,public,VA
ELEC,Kimpton Morrison House - Tesla Destination,116 S Alfred St,Alexandria,22314,J1772 TESLA,Free,38.804636,-77.049262,public,VA
ELEC,Kimpton Lorien Hotel & Spa - Tesla Destination,1600 King St,Alexandria,22314,J1772 TESLA,Free,38.806049,-77.056808,public,VA
ELEC,Hilton Alexandria Old Town - Tesla Destination,1767 King St,Alexandria,22314,TESLA,Free,38.807129,-77.059363,public,VA
ELEC,"The Alexandrian, Autograph Collection - Tesla Destination",480 King St,Alexandria,22314,J1772 TESLA,Free,38.804411,-77.044697,public,VA
ELEC,Sheraton Suites Old Town Alexandria - Tesla Destination,801 N St Asaph St,Alexandria,22314,J1772 TESLA,Free,38.813023,-77.043613,public,VA
ELEC,E&S Mart's Two Sisters Tap Room and Deli - Tesla Destination,2181 Lynch Mill Rd,Altavista,24517,J1772 TESLA,Free,37.131313,-79.283927,public,VA
ELEC,The Ritz-Carlton Pentagon City - Tesla Destination,1250 S Hayes St,Arlington,22202,J1772 TESLA,Free,38.862637,-77.060346,public,VA
ELEC,2311 Wilson Blvd - Tesla Destination,2311 Wilson Blvd,Arlington,22201,J1772 TESLA,Free,38.8911312,-77.0868397,public,VA
ELEC,Renaissance Arlington Capital View Hotel - Tesla Destination,2800 S Potomac Ave,Arlington,22202,J1772 TESLA,Free,38.8474025,-77.0513855,public,VA
ELEC,Bedford Welcome Center - Tesla Destination,816 Burks Hill Rd,Bedford,24523,J1772 TESLA,Free,37.324894,-79.531374,public,VA
ELEC,Peaks of Otter Lodge - Tesla Destination,85554 Blue Ridge Pkwy,Bedford,24523,J1772 TESLA,Free,37.448296,-79.604445,public,VA
ELEC,Courtyard Blacksburg - Tesla Destination,105 Southpark Dr,Blacksburg,24060,J1772 TESLA,Free,37.199367,-80.401037,public,VA
ELEC,The Grey Swan Inn Bed and Breakfast - Tesla Destination,615 S Main St,Blackstone,23824,J1772 TESLA,Free,37.0739031,-78.000788,public,VA
ELEC,"L'Auberge Provencale, a Select Registry Property - Tesla Destination",13630 Lord Fairfax Hwy,Boyce,22620,J1772 TESLA,Free,39.0708248,-78.0936848,public,VA
ELEC,Pearmund Cellars - Tesla Destination,6190 Georgetown Rd,Broad Run,20137,TESLA,Free,38.783407,-77.739663,public,VA
ELEC,Graduate Charlottesville - Tesla Destination,1309 W Main St,Charlottesville,22903,J1772 TESLA,Free,38.033823,-78.498478,public,VA
ELEC,Boar's Head Inn - Tesla Destination,200 Ednam Dr,Charlottesville,22903,J1772 TESLA,Free,38.04846,-78.542075,public,VA
ELEC,Hyatt Place Charlottesville - Tesla Destination,2100 Bond St,Charlottesville,22901,J1772 TESLA,Free,38.06574,-78.492423,public,VA
ELEC,"Foxfield Inn, a Select Registry Property - Tesla Destination",2280 Garth Rd,Charlottesville,22901,J1772 TESLA,Free,38.1035619,-78.56579,public,VA
ELEC,The Flats at West Village - Tesla Destination,852 W Main Street,Charlottesville,22903,J1772 TESLA,Free,38.031934,-78.493365,public,VA
ELEC,Hyatt Place Richmond / Chester - Tesla Destination,13148 Kingston Ave,Chester,23836,TESLA,Free,37.347818,-77.34417,public,VA
ELEC,Refuge Inn - Tesla Destination,7058 Maddox Blvd,Chincoteague Island,23336,J1772 TESLA,Free,37.924371,-75.354259,public,VA
ELEC,Holiday Inn Christiansburg - Tesla Destination,99 Bradley Drive,Christiansburg,24073,J1772 TESLA,Free,37.162493,-80.427376,public,VA
ELEC,Hill Crest Mansion Inn - Tesla Destination,1100 McCormick Blvd,Clifton Forge,24422,TESLA,Free,37.8261389,-79.8297699,public,VA
ELEC,The Boathouse Marina - Tesla Destination,829 Robin Grove Ln,Colonial Beach,22443,J1772 TESLA,Free,38.2406282,-76.9624136,public,VA
ELEC,Pro Re Nata Brewery - Tesla Destination,6135 Rockfish Gap Turnpike,Crozet,22932,J1772 TESLA,Free,38.048816,-78.714226,public,VA
ELEC,DuCard Vineyards - Tesla Destination,40 Gibson Hollow Ln,Etlan,22719,J1772 TESLA,Free,38.51513,-78.303035,public,VA
ELEC,SpringHill Suites Fairfax Fair Oaks - Tesla Destination,11191 Waples Mill Rd,Fairfax,22030,J1772 TESLA,Free,38.85364,-77.338581,public,VA
ELEC,Hotel Floyd - Tesla Destination,300 Rick Lewis Way,Floyd,24091,TESLA,Free,36.910456,-80.31744,public,VA
ELEC,Riverton Commons Shopping Center - Tesla Destination,10 Riverton Commons Dr,Front Royal,22630,J1772 TESLA,Free,38.962438,-78.189273,public,VA
ELEC,Comfort Suites At Virginia Center Commons - Tesla Destination,10601 Telegraph Rd,Glen Allen,23059,J1772 TESLA,Free,37.674415,-77.450155,public,VA
ELEC,Candlewood Suites Richmond North-Glen Allen - Tesla Destination,10609 Telegraph Rd,Glen Allen,23059,J1772 TESLA,Free,37.674316,-77.449464,public,VA
ELEC,By the Side of the Road Inn & Cottages - Tesla Destination,491 Garbers Church Rd,Harrisonburg,22801,J1772 TESLA,Free,38.4515068,-78.9041562,public,VA
ELEC,Microtel Inn & Suites by Wyndham Harrisonburg - Tesla Destination,85 Pleasant Valley Rd,Harrisonburg,22801,TESLA,Free,38.405608,-78.907199,public,VA
ELEC,Downtown Hopewell Virginia - Tesla Destination,220 Appomattox St,Hopewell,23860,J1772 TESLA,Free,37.305911,-77.28646,public,VA
ELEC,The Boathouse at City Point - Tesla Destination,701 W Randolph Rd,Hopewell,23860,TESLA,Free,37.308732,-77.294043,public,VA
ELEC,The Tides Inn - Tesla Destination,480 King Carter Dr,Irvington,22480,J1772 TESLA,Free,37.664451,-76.432381,public,VA
ELEC,Keswick Hall & Golf Club - Tesla Destination,701 Club Dr,Keswick,22947,J1772 TESLA,Free,38.016727,-78.367276,public,VA
ELEC,Lansdowne Resort - Tesla Destination,44050 Woodridge Pkwy,Leesburg,20176,J1772 TESLA,Free,39.0834,-77.475975,public,VA
ELEC,Best Western Leesburg Hotel & Conference Center - Tesla Destination,726 E Market St,Leesburg,20176,J1772 TESLA,Free,39.106499,-77.5459562,public,VA
ELEC,Best Western Plus Inn at Hunt Ridge - Tesla Destination,25 Willow Springs Rd,Lexington,24450,J1772 TESLA,Free,37.804211,-79.415913,public,VA
ELEC,Comfort Inn Virginia Horse Center - Tesla Destination,62 Comfort Wy,Lexington,24450,J1772 TESLA,Free,37.801513,-79.417941,public,VA
ELEC,Brierley Hill Bed and Breakfast - Tesla Destination,985 Borden Rd,Lexington,24450,TESLA,Free,37.7947045,-79.4699173,public,VA
ELEC,Prospect Hill Plantation Inn - Tesla Destination,2887 Poindexter Rd,Louisa County,23093,J1772 TESLA,Free,37.99188,-78.165277,public,VA
ELEC,The Mimslyn Inn - Tesla Destination,401 W Main St,Luray,22835,J1772 TESLA,Free,38.664182,-78.46637,public,VA
ELEC,Shenandoah National Park - Skyland Resort - Tesla Destination,- Skyland Upper Loop Mile 41,Luray,22835,J1772 TESLA,Free,38.592057,-78.38108,public,VA
ELEC,Craddock Terry Hotel - Tesla Destination,1312 Commerce St,Lynchburg,24504,TESLA,Free,37.411599,-79.138201,public,VA
ELEC,Courtyard by Marriott Liberty University/Lynchburg - Tesla Destination,4640 Murray Pl,Lynchburg,24502,TESLA,Free,37.368797,-79.173357,public,VA
ELEC,Kinloch Golf Club - Tesla Destination,100 Kinloch Ln,Manakin Sabot,23103,TESLA,Free,37.6359894,-77.6872898,public,VA
ELEC,Field & Main Restaurant - Tesla Destination,8369 W Main St,Marshall,20115,TESLA,Free,38.864719,-77.857351,public,VA
ELEC,"The Ritz-Carlton, Tysons Corner - Tesla Destination",1700 Tysons Blvd,Mclean,22012,J1772 TESLA,Free,38.924225,-77.2235,public,VA
ELEC,Hilton McLean Tysons Corner - Tesla Destination,7920 Jones Branch Dr,McLean,22102,TESLA,Free,38.925974,-77.216181,public,VA
ELEC,Primland - Tesla Destination,2000 Busted Rock Rd,Meadows of Dan,24120,TESLA,Free,36.661544,-80.43188,public,VA
ELEC,50 West Vineyards - Tesla Destination,39060 John Mosby Hwy,Middleburg,20117,J1772 TESLA,Free,38.9812175,-77.6582443,public,VA
ELEC,Salamander Resort & Spa - Tesla Destination,500 N Pendleton St,Middleburg,20137,TESLA,Free,38.974469,-77.7433777,public,VA
ELEC,Independence Golf Club - Tesla Destination,600 Founders Bridge Blvd,Midlothian,23113,J1772 TESLA,Free,37.543733,-77.684625,public,VA
ELEC,James Madison's Montpelier - Tesla Destination,11350 Constitution Hwy,Montpelier Station,22957,J1772 TESLA,Free,38.217746,-78.171122,public,VA
ELEC,Shenvalee Golf Resort - Tesla Destination,9660 Fairway Dr,New Market,22844,J1772 TESLA,Free,38.640043,-78.673807,public,VA
ELEC,"Holiday Inn Express & Suites, Newport News - Tesla Destination",943 J Clyde Morris Blvd,Newport News,23601,J1772 TESLA,Free,37.0928622,-76.4606547,public,VA
